$GNRMC,083108.10,A,3600.81896,N,12919.17798,E,0.085,,190620,,,A,V*1F
$GNRMC,083108.20,A,3600.81931,N,12919.17809,E,0.121,,190620,,,A,V*18
$GNRMC,083108.30,A,3600.81947,N,12919.17815,E,0.106,,190620,,,A,V*10
$GNRMC,083108.40,A,3600.81954,N,12919.17816,E,0.092,,190620,,,A,V*1A
$GNRMC,083108.50,A,3600.81958,N,12919.17815,E,0.077,,190620,,,A,V*1F
$GNRMC,083108.60,A,3600.81960,N,12919.17813,E,0.022,,190620,,,A,V*11
$GNRMC,083108.70,A,3600.81966,N,12919.17815,E,0.063,,190620,,,A,V*15
$GNRMC,083108.80,A,3600.81972,N,12919.17818,E,0.022,,190620,,,A,V*17
$GNRMC,083108.90,A,3600.81976,N,12919.17821,E,0.037,,190620,,,A,V*1C
$GNRMC,083109.00,A,3600.81978,N,12919.17821,E,0.030,,190620,,,A,V*1D
$GNRMC,083109.10,A,3600.81984,N,12919.17824,E,0.045,,190620,,,A,V*18
$GNRMC,083109.20,A,3600.81997,N,12919.17829,E,0.050,,190620,,,A,V*10
$GNRMC,083109.30,A,3600.82004,N,12919.17831,E,0.043,,190620,,,A,V*1A
$GNRMC,083109.40,A,3600.82011,N,12919.17834,E,0.053,,190620,,,A,V*1D
$GNRMC,083109.50,A,3600.82016,N,12919.17834,E,0.071,,190620,,,A,V*1B
$GNRMC,083109.60,A,3600.82017,N,12919.17832,E,0.065,,190620,,,A,V*1A
$GNRMC,083109.70,A,3600.82033,N,12919.17836,E,0.065,,190620,,,A,V*19
$GNRMC,083109.80,A,3600.82047,N,12919.17840,E,0.096,,190620,,,A,V*18
$GNRMC,083109.90,A,3600.82053,N,12919.17841,E,0.074,,190620,,,A,V*11
$GNRMC,083110.00,A,3600.82057,N,12919.17842,E,0.116,,190620,,,A,V*12
$GNRMC,083110.10,A,3600.82054,N,12919.17841,E,0.190,,190620,,,A,V*1D
$GNRMC,083110.20,A,3600.82047,N,12919.17836,E,0.201,163.48,190620,,,A,V*01
$GNRMC,083110.30,A,3600.82038,N,12919.17831,E,0.276,175.35,190620,,,A,V*02
$GNRMC,083110.40,A,3600.82033,N,12919.17828,E,0.331,175.54,190620,,,A,V*03
$GNRMC,083110.50,A,3600.82027,N,12919.17826,E,0.338,177.20,190620,,,A,V*01
$GNRMC,083110.60,A,3600.82026,N,12919.17826,E,0.329,177.39,190620,,,A,V*0B
$GNRMC,083110.70,A,3600.82026,N,12919.17827,E,0.311,177.05,190620,,,A,V*0F
$GNRMC,083110.80,A,3600.82027,N,12919.17828,E,0.251,178.47,190620,,,A,V*02
$GNRMC,083110.90,A,3600.82028,N,12919.17830,E,0.196,176.61,190620,,,A,V*07
$GNRMC,083111.00,A,3600.82028,N,12919.17829,E,0.186,,190620,,,A,V*1F
$GNRMC,083111.10,A,3600.82028,N,12919.17831,E,0.191,,190620,,,A,V*11
$GNRMC,083111.20,A,3600.82028,N,12919.17832,E,0.224,158.74,190620,,,A,V*0D
$GNRMC,083111.30,A,3600.82029,N,12919.17833,E,0.227,152.68,190620,,,A,V*08
$GNRMC,083111.40,A,3600.82031,N,12919.17834,E,0.214,145.96,190620,,,A,V*06
$GNRMC,083111.50,A,3600.82031,N,12919.17835,E,0.247,143.15,190620,,,A,V*0D
$GNRMC,083111.60,A,3600.82031,N,12919.17836,E,0.298,143.80,190620,,,A,V*03
$GNRMC,083111.70,A,3600.82031,N,12919.17834,E,0.320,150.33,190620,,,A,V*08
$GNRMC,083111.80,A,3600.82031,N,12919.17834,E,0.296,152.92,190620,,,A,V*02
$GNRMC,083111.90,A,3600.82029,N,12919.17834,E,0.246,154.52,190620,,,A,V*0D
$GNRMC,083112.00,A,3600.82027,N,12919.17833,E,0.254,163.56,190620,,,A,V*0D
$GNRMC,083112.10,A,3600.82027,N,12919.17834,E,0.282,165.86,190620,,,A,V*0B
$GNRMC,083112.20,A,3600.82026,N,12919.17834,E,0.358,163.25,190620,,,A,V*00
$GNRMC,083112.30,A,3600.82026,N,12919.17836,E,0.357,163.53,190620,,,A,V*0D
$GNRMC,083112.40,A,3600.82025,N,12919.17837,E,0.329,166.24,190620,,,A,V*04
$GNRMC,083112.50,A,3600.82025,N,12919.17838,E,0.310,168.72,190620,,,A,V*0D
$GNRMC,083112.60,A,3600.82022,N,12919.17837,E,0.312,169.41,190620,,,A,V*05
$GNRMC,083112.70,A,3600.82023,N,12919.17838,E,0.306,168.86,190620,,,A,V*05
$GNRMC,083112.80,A,3600.82022,N,12919.17838,E,0.301,167.33,190620,,,A,V*0D
$GNRMC,083112.90,A,3600.82020,N,12919.17840,E,0.328,164.03,190620,,,A,V*0A
$GNRMC,083113.00,A,3600.82019,N,12919.17840,E,0.330,165.02,190620,,,A,V*01
$GNRMC,083113.10,A,3600.82019,N,12919.17841,E,0.276,162.21,190620,,,A,V*04
$GNRMC,083113.20,A,3600.82024,N,12919.17845,E,0.189,,190620,,,A,V*16
$GNRMC,083113.30,A,3600.82028,N,12919.17848,E,0.173,,190620,,,A,V*13
$GNRMC,083113.40,A,3600.82028,N,12919.17849,E,0.208,142.73,190620,,,A,V*07
$GNRMC,083113.50,A,3600.82027,N,12919.17850,E,0.236,132.97,190620,,,A,V*01
$GNRMC,083113.60,A,3600.82028,N,12919.17852,E,0.215,125.05,190620,,,A,V*03
$GNRMC,083113.70,A,3600.82029,N,12919.17853,E,0.216,119.38,190620,,,A,V*00
$GNRMC,083113.80,A,3600.82029,N,12919.17853,E,0.175,,190620,,,A,V*15
$GNRMC,083113.90,A,3600.82031,N,12919.17855,E,0.158,,190620,,,A,V*14
$GNRMC,083114.00,A,3600.82031,N,12919.17855,E,0.096,,190620,,,A,V*19
$GNRMC,083114.10,A,3600.82031,N,12919.17856,E,0.109,,190620,,,A,V*1C
$GNRMC,083114.20,A,3600.82032,N,12919.17857,E,0.101,,190620,,,A,V*15
$GNRMC,083114.30,A,3600.82034,N,12919.17856,E,0.060,,190620,,,A,V*15
$GNRMC,083114.40,A,3600.82035,N,12919.17855,E,0.079,,190620,,,A,V*18
$GNRMC,083114.50,A,3600.82038,N,12919.17854,E,0.166,,190620,,,A,V*1A
$GNRMC,083114.60,A,3600.82039,N,12919.17853,E,0.191,,190620,,,A,V*17
$GNRMC,083114.70,A,3600.82041,N,12919.17854,E,0.232,218.03,190620,,,A,V*02
$GNRMC,083114.80,A,3600.82049,N,12919.17856,E,0.248,260.53,190620,,,A,V*00
$GNRMC,083114.90,A,3600.82053,N,12919.17856,E,0.287,280.78,190620,,,A,V*0E
$GNRMC,083115.00,A,3600.82058,N,12919.17857,E,0.321,291.38,190620,,,A,V*05
$GNRMC,083115.10,A,3600.82061,N,12919.17857,E,0.355,292.93,190620,,,A,V*0F
$GNRMC,083115.20,A,3600.82064,N,12919.17857,E,0.370,293.66,190620,,,A,V*05
$GNRMC,083115.30,A,3600.82065,N,12919.17858,E,0.378,294.67,190620,,,A,V*04
$GNRMC,083115.40,A,3600.82066,N,12919.17855,E,0.435,293.86,190620,,,A,V*0B
$GNRMC,083115.50,A,3600.82067,N,12919.17854,E,0.471,293.03,190620,,,A,V*07
$GNRMC,083115.60,A,3600.82069,N,12919.17853,E,0.463,292.78,190620,,,A,V*03
$GNRMC,083115.70,A,3600.82072,N,12919.17853,E,0.433,294.05,190620,,,A,V*01
$GNRMC,083115.80,A,3600.82074,N,12919.17852,E,0.433,294.44,190620,,,A,V*0C
$GNRMC,083115.90,A,3600.82075,N,12919.17851,E,0.426,292.16,190620,,,A,V*0A
$GNRMC,083116.00,A,3600.82075,N,12919.17850,E,0.418,289.94,190620,,,A,V*0C
$GNRMC,083116.10,A,3600.82076,N,12919.17850,E,0.400,287.59,190620,,,A,V*08
$GNRMC,083116.20,A,3600.82077,N,12919.17849,E,0.382,287.50,190620,,,A,V*06
$GNRMC,083116.30,A,3600.82079,N,12919.17848,E,0.370,288.18,190620,,,A,V*06
$GNRMC,083116.40,A,3600.82081,N,12919.17847,E,0.383,291.88,190620,,,A,V*04
$GNRMC,083116.50,A,3600.82083,N,12919.17843,E,0.425,293.28,190620,,,A,V*00
$GNRMC,083116.60,A,3600.82084,N,12919.17840,E,0.463,291.98,190620,,,A,V*0C
$GNRMC,083116.70,A,3600.82087,N,12919.17838,E,0.521,294.41,190620,,,A,V*07
$GNRMC,083116.80,A,3600.82089,N,12919.17835,E,0.601,296.28,190620,,,A,V*07
$GNRMC,083116.90,A,3600.82089,N,12919.17833,E,0.608,295.04,190620,,,A,V*04
$GNRMC,083117.00,A,3600.82088,N,12919.17829,E,0.703,292.27,190620,,,A,V*0A
$GNRMC,083117.10,A,3600.82093,N,12919.17826,E,0.797,293.78,190620,,,A,V*08
$GNRMC,083117.20,A,3600.82093,N,12919.17825,E,0.739,292.31,190620,,,A,V*00
$GNRMC,083117.30,A,3600.82093,N,12919.17821,E,0.774,289.77,190620,,,A,V*04
$GNRMC,083117.40,A,3600.82093,N,12919.17820,E,0.730,288.55,190620,,,A,V*03
$GNRMC,083117.50,A,3600.82093,N,12919.17819,E,0.683,288.09,190620,,,A,V*08
$GNRMC,083117.60,A,3600.82093,N,12919.17817,E,0.648,286.96,190620,,,A,V*0A
$GNRMC,083117.70,A,3600.82094,N,12919.17817,E,0.578,285.50,190620,,,A,V*05
$GNRMC,083117.80,A,3600.82094,N,12919.17817,E,0.506,285.27,190620,,,A,V*03
$GNRMC,083117.90,A,3600.82095,N,12919.17816,E,0.464,285.09,190620,,,A,V*0B
$GNRMC,083118.00,A,3600.82094,N,12919.17815,E,0.414,283.13,190620,,,A,V*05
$GNRMC,083118.10,A,3600.82094,N,12919.17815,E,0.366,282.92,190620,,,A,V*0E
$GNRMC,083118.20,A,3600.82090,N,12919.17813,E,0.340,277.80,190620,,,A,V*02
$GNRMC,083118.30,A,3600.82090,N,12919.17813,E,0.295,278.38,190620,,,A,V*06
$GNRMC,083118.40,A,3600.82089,N,12919.17812,E,0.248,281.41,190620,,,A,V*00
$GNRMC,083118.50,A,3600.82089,N,12919.17812,E,0.200,,190620,,,A,V*1D
$GNRMC,083118.60,A,3600.82087,N,12919.17812,E,0.157,,190620,,,A,V*11
$GNRMC,083118.70,A,3600.82083,N,12919.17812,E,0.110,,190620,,,A,V*17
$GNRMC,083118.80,A,3600.82081,N,12919.17810,E,0.104,,190620,,,A,V*1D
$GNRMC,083118.90,A,3600.82079,N,12919.17810,E,0.080,,190620,,,A,V*16
$GNRMC,083119.00,A,3600.82077,N,12919.17809,E,0.066,,190620,,,A,V*10
$GNRMC,083119.10,A,3600.82078,N,12919.17809,E,0.073,,190620,,,A,V*1A
$GNRMC,083119.20,A,3600.82077,N,12919.17810,E,0.044,,190620,,,A,V*1A
$GNRMC,083119.30,A,3600.82078,N,12919.17810,E,0.025,,190620,,,A,V*13
$GNRMC,083119.40,A,3600.82079,N,12919.17809,E,0.050,,190620,,,A,V*1F
$GNRMC,083119.50,A,3600.82079,N,12919.17810,E,0.030,,190620,,,A,V*10
$GNRMC,083119.60,A,3600.82080,N,12919.17809,E,0.047,,190620,,,A,V*1D
$GNRMC,083119.70,A,3600.82081,N,12919.17810,E,0.043,,190620,,,A,V*11
$GNRMC,083119.80,A,3600.82081,N,12919.17810,E,0.031,,190620,,,A,V*1B
$GNRMC,083119.90,A,3600.82082,N,12919.17811,E,0.023,,190620,,,A,V*1B
$GNRMC,083120.00,A,3600.82083,N,12919.17811,E,0.027,,190620,,,A,V*1D
$GNRMC,083120.10,A,3600.82084,N,12919.17811,E,0.015,,190620,,,A,V*1A
$GNRMC,083120.20,A,3600.82085,N,12919.17811,E,0.026,,190620,,,A,V*18
$GNRMC,083120.30,A,3600.82085,N,12919.17811,E,0.017,,190620,,,A,V*1B
$GNRMC,083120.40,A,3600.82086,N,12919.17812,E,0.015,,190620,,,A,V*1E
$GNRMC,083120.50,A,3600.82088,N,12919.17813,E,0.016,,190620,,,A,V*13
$GNRMC,083120.60,A,3600.82088,N,12919.17813,E,0.011,,190620,,,A,V*17
$GNRMC,083120.70,A,3600.82089,N,12919.17813,E,0.016,,190620,,,A,V*10
$GNRMC,083120.80,A,3600.82090,N,12919.17814,E,0.023,,190620,,,A,V*16
$GNRMC,083120.90,A,3600.82090,N,12919.17814,E,0.016,,190620,,,A,V*11
$GNRMC,083121.00,A,3600.82091,N,12919.17814,E,0.015,,190620,,,A,V*1B
$GNRMC,083121.10,A,3600.82091,N,12919.17814,E,0.018,,190620,,,A,V*17
$GNRMC,083121.20,A,3600.82091,N,12919.17815,E,0.019,,190620,,,A,V*14
$GNRMC,083121.30,A,3600.82091,N,12919.17815,E,0.019,,190620,,,A,V*15
$GNRMC,083121.40,A,3600.82092,N,12919.17815,E,0.024,,190620,,,A,V*1F
$GNRMC,083121.50,A,3600.82092,N,12919.17815,E,0.010,,190620,,,A,V*19
$GNRMC,083121.60,A,3600.82093,N,12919.17816,E,0.026,,190620,,,A,V*1D
$GNRMC,083121.70,A,3600.82093,N,12919.17816,E,0.024,,190620,,,A,V*1E
$GNRMC,083121.80,A,3600.82093,N,12919.17816,E,0.010,,190620,,,A,V*16
$GNRMC,083121.90,A,3600.82093,N,12919.17816,E,0.019,,190620,,,A,V*1E
$GNRMC,083122.00,A,3600.82093,N,12919.17816,E,0.017,,190620,,,A,V*1A
$GNRMC,083122.10,A,3600.82093,N,12919.17817,E,0.017,,190620,,,A,V*1A
$GNRMC,083122.20,A,3600.82093,N,12919.17817,E,0.018,,190620,,,A,V*16
$GNRMC,083122.30,A,3600.82094,N,12919.17817,E,0.020,,190620,,,A,V*1B
$GNRMC,083122.40,A,3600.82094,N,12919.17817,E,0.016,,190620,,,A,V*19
$GNRMC,083122.50,A,3600.82094,N,12919.17818,E,0.022,,190620,,,A,V*10
$GNRMC,083122.60,A,3600.82094,N,12919.17818,E,0.023,,190620,,,A,V*12
$GNRMC,083122.70,A,3600.82094,N,12919.17818,E,0.023,,190620,,,A,V*13
$GNRMC,083122.80,A,3600.82094,N,12919.17819,E,0.018,,190620,,,A,V*15
$GNRMC,083122.90,A,3600.82094,N,12919.17819,E,0.018,,190620,,,A,V*14
$GNRMC,083123.00,A,3600.82095,N,12919.17820,E,0.026,,190620,,,A,V*1A
$GNRMC,083123.10,A,3600.82094,N,12919.17820,E,0.009,,190620,,,A,V*17
$GNRMC,083123.20,A,3600.82095,N,12919.17821,E,0.022,,190620,,,A,V*1D
$GNRMC,083123.30,A,3600.82095,N,12919.17821,E,0.016,,190620,,,A,V*1B
$GNRMC,083123.40,A,3600.82095,N,12919.17821,E,0.028,,190620,,,A,V*11
$GNRMC,083123.50,A,3600.82095,N,12919.17821,E,0.011,,190620,,,A,V*1A
$GNRMC,083123.60,A,3600.82095,N,12919.17822,E,0.012,,190620,,,A,V*19
$GNRMC,083123.70,A,3600.82095,N,12919.17822,E,0.021,,190620,,,A,V*18
$GNRMC,083123.80,A,3600.82094,N,12919.17822,E,0.006,,190620,,,A,V*13
$GNRMC,083123.90,A,3600.82095,N,12919.17823,E,0.021,,190620,,,A,V*17
$GNRMC,083124.00,A,3600.82095,N,12919.17823,E,0.016,,190620,,,A,V*1D
$GNRMC,083124.10,A,3600.82095,N,12919.17824,E,0.007,,190620,,,A,V*1B
$GNRMC,083124.20,A,3600.82095,N,12919.17824,E,0.007,,190620,,,A,V*18
$GNRMC,083124.30,A,3600.82095,N,12919.17825,E,0.013,,190620,,,A,V*1D
$GNRMC,083124.40,A,3600.82095,N,12919.17825,E,0.008,,190620,,,A,V*10
$GNRMC,083124.50,A,3600.82095,N,12919.17825,E,0.004,,190620,,,A,V*1D
$GNRMC,083124.60,A,3600.82095,N,12919.17825,E,0.005,,190620,,,A,V*1F
$GNRMC,083124.70,A,3600.82095,N,12919.17826,E,0.009,,190620,,,A,V*11
$GNRMC,083124.80,A,3600.82095,N,12919.17826,E,0.006,,190620,,,A,V*11
$GNRMC,083124.90,A,3600.82095,N,12919.17826,E,0.000,,190620,,,A,V*16
$GNRMC,083125.00,A,3600.82095,N,12919.17826,E,0.006,,190620,,,A,V*18
$GNRMC,083125.10,A,3600.82095,N,12919.17826,E,0.003,,190620,,,A,V*1C
$GNRMC,083125.20,A,3600.82095,N,12919.17827,E,0.010,,190620,,,A,V*1C
$GNRMC,083125.30,A,3600.82095,N,12919.17827,E,0.003,,190620,,,A,V*1F
$GNRMC,083125.40,A,3600.82095,N,12919.17827,E,0.003,,190620,,,A,V*18
$GNRMC,083125.50,A,3600.82095,N,12919.17828,E,0.009,,190620,,,A,V*1C
$GNRMC,083125.60,A,3600.82095,N,12919.17828,E,0.006,,190620,,,A,V*10
$GNRMC,083125.70,A,3600.82095,N,12919.17828,E,0.009,,190620,,,A,V*1E
$GNRMC,083125.80,A,3600.82095,N,12919.17828,E,0.003,,190620,,,A,V*1B
$GNRMC,083125.90,A,3600.82094,N,12919.17829,E,0.007,,190620,,,A,V*1E
$GNRMC,083126.00,A,3600.82095,N,12919.17829,E,0.003,,190620,,,A,V*11
$GNRMC,083126.10,A,3600.82095,N,12919.17829,E,0.009,,190620,,,A,V*1A
$GNRMC,083126.20,A,3600.82095,N,12919.17829,E,0.009,,190620,,,A,V*19
$GNRMC,083126.30,A,3600.82095,N,12919.17830,E,0.013,,190620,,,A,V*1B
$GNRMC,083126.40,A,3600.82095,N,12919.17829,E,0.009,,190620,,,A,V*1F
$GNRMC,083126.50,A,3600.82095,N,12919.17830,E,0.013,,190620,,,A,V*1D
$GNRMC,083126.60,A,3600.82095,N,12919.17830,E,0.009,,190620,,,A,V*15
$GNRMC,083126.70,A,3600.82095,N,12919.17830,E,0.012,,190620,,,A,V*1E
$GNRMC,083126.80,A,3600.82095,N,12919.17830,E,0.011,,190620,,,A,V*12
$GNRMC,083126.90,A,3600.82095,N,12919.17830,E,0.013,,190620,,,A,V*11
$GNRMC,083127.00,A,3600.82095,N,12919.17831,E,0.014,,190620,,,A,V*1F
$GNRMC,083127.10,A,3600.82095,N,12919.17831,E,0.022,,190620,,,A,V*1B
$GNRMC,083127.20,A,3600.82095,N,12919.17832,E,0.021,,190620,,,A,V*18
$GNRMC,083127.30,A,3600.82095,N,12919.17832,E,0.013,,190620,,,A,V*18
$GNRMC,083127.40,A,3600.82095,N,12919.17832,E,0.016,,190620,,,A,V*1A
$GNRMC,083127.50,A,3600.82095,N,12919.17833,E,0.018,,190620,,,A,V*14
$GNRMC,083127.60,A,3600.82096,N,12919.17833,E,0.016,,190620,,,A,V*1A
$GNRMC,083127.70,A,3600.82095,N,12919.17833,E,0.008,,190620,,,A,V*17
$GNRMC,083127.80,A,3600.82096,N,12919.17833,E,0.013,,190620,,,A,V*11
$GNRMC,083127.90,A,3600.82095,N,12919.17834,E,0.018,,190620,,,A,V*1F
$GNRMC,083128.00,A,3600.82095,N,12919.17834,E,0.014,,190620,,,A,V*15
$GNRMC,083128.10,A,3600.82096,N,12919.17834,E,0.011,,190620,,,A,V*12
$GNRMC,083128.20,A,3600.82096,N,12919.17834,E,0.016,,190620,,,A,V*16
$GNRMC,083128.30,A,3600.82096,N,12919.17835,E,0.023,,190620,,,A,V*10
$GNRMC,083128.40,A,3600.82095,N,12919.17835,E,0.007,,190620,,,A,V*12
$GNRMC,083128.50,A,3600.82097,N,12919.17835,E,0.035,,190620,,,A,V*10
$GNRMC,083128.60,A,3600.82097,N,12919.17835,E,0.029,,190620,,,A,V*1E
$GNRMC,083128.70,A,3600.82097,N,12919.17835,E,0.026,,190620,,,A,V*10
$GNRMC,083128.80,A,3600.82098,N,12919.17835,E,0.036,,190620,,,A,V*11
$GNRMC,083128.90,A,3600.82096,N,12919.17836,E,0.007,,190620,,,A,V*1F
$GNRMC,083129.00,A,3600.82097,N,12919.17836,E,0.017,,190620,,,A,V*17
$GNRMC,083129.10,A,3600.82096,N,12919.17836,E,0.014,,190620,,,A,V*14
$GNRMC,083129.20,A,3600.82097,N,12919.17835,E,0.030,,190620,,,A,V*13
$GNRMC,083129.30,A,3600.82097,N,12919.17836,E,0.022,,190620,,,A,V*12
$GNRMC,083129.40,A,3600.82097,N,12919.17836,E,0.031,,190620,,,A,V*17
$GNRMC,083129.50,A,3600.82097,N,12919.17836,E,0.025,,190620,,,A,V*13
$GNRMC,083129.60,A,3600.82097,N,12919.17836,E,0.023,,190620,,,A,V*16
$GNRMC,083129.70,A,3600.82097,N,12919.17837,E,0.019,,190620,,,A,V*1F
$GNRMC,083129.80,A,3600.82098,N,12919.17837,E,0.041,,190620,,,A,V*12
$GNRMC,083129.90,A,3600.82097,N,12919.17837,E,0.007,,190620,,,A,V*1E
$GNRMC,083130.00,A,3600.82097,N,12919.17837,E,0.016,,190620,,,A,V*1F
$GNRMC,083130.10,A,3600.82095,N,12919.17836,E,0.015,,190620,,,A,V*1E
$GNRMC,083130.20,A,3600.82093,N,12919.17836,E,0.012,,190620,,,A,V*1C
$GNRMC,083130.30,A,3600.82091,N,12919.17834,E,0.008,,190620,,,A,V*16
$GNRMC,083130.40,A,3600.82089,N,12919.17833,E,0.013,,190620,,,A,V*15
$GNRMC,083130.50,A,3600.82087,N,12919.17832,E,0.022,,190620,,,A,V*19
$GNRMC,083130.60,A,3600.82085,N,12919.17832,E,0.019,,190620,,,A,V*10
$GNRMC,083130.70,A,3600.82084,N,12919.17831,E,0.014,,190620,,,A,V*1E
$GNRMC,083130.80,A,3600.82082,N,12919.17830,E,0.016,,190620,,,A,V*14
$GNRMC,083130.90,A,3600.82080,N,12919.17830,E,0.007,,190620,,,A,V*17
$GNRMC,083131.00,A,3600.82078,N,12919.17829,E,0.009,,190620,,,A,V*1E
$GNRMC,083131.10,A,3600.82077,N,12919.17828,E,0.008,,190620,,,A,V*10
$GNRMC,083131.20,A,3600.82075,N,12919.17828,E,0.012,,190620,,,A,V*1A
$GNRMC,083131.30,A,3600.82074,N,12919.17827,E,0.016,,190620,,,A,V*11
$GNRMC,083131.40,A,3600.82072,N,12919.17825,E,0.025,,190620,,,A,V*12
$GNRMC,083131.50,A,3600.82071,N,12919.17825,E,0.012,,190620,,,A,V*14
$GNRMC,083131.60,A,3600.82070,N,12919.17825,E,0.011,,190620,,,A,V*15
$GNRMC,083131.70,A,3600.82070,N,12919.17824,E,0.063,,190620,,,A,V*10
$GNRMC,083131.80,A,3600.82066,N,12919.17822,E,0.032,,190620,,,A,V*1A
$GNRMC,083131.90,A,3600.82063,N,12919.17820,E,0.048,,190620,,,A,V*11
$GNRMC,083132.00,A,3600.82063,N,12919.17820,E,0.060,,190620,,,A,V*11
$GNRMC,083132.10,A,3600.82060,N,12919.17819,E,0.034,,190620,,,A,V*18
$GNRMC,083132.20,A,3600.82056,N,12919.17817,E,0.022,,190620,,,A,V*17
$GNRMC,083132.30,A,3600.82053,N,12919.17815,E,0.026,,190620,,,A,V*15
$GNRMC,083132.40,A,3600.82049,N,12919.17814,E,0.038,,190620,,,A,V*17
$GNRMC,083132.50,A,3600.82048,N,12919.17812,E,0.060,,190620,,,A,V*1C
$GNRMC,083132.60,A,3600.82041,N,12919.17803,E,0.200,275.83,190620,,,A,V*07
$GNRMC,083132.70,A,3600.82043,N,12919.17795,E,0.381,304.93,190620,,,A,V*0A
$GNRMC,083132.80,A,3600.82027,N,12919.17786,E,0.321,292.99,190620,,,A,V*0B
$GNRMC,083132.90,A,3600.82019,N,12919.17781,E,0.206,,190620,,,A,V*13
$GNRMC,083133.00,A,3600.82009,N,12919.17784,E,0.179,,190620,,,A,V*14
$GNRMC,083133.10,A,3600.82002,N,12919.17787,E,0.357,174.03,190620,,,A,V*0C
$GNRMC,083133.20,A,3600.81993,N,12919.17787,E,0.514,138.01,190620,,,A,V*06
$GNRMC,083133.30,A,3600.81983,N,12919.17787,E,0.634,138.77,190620,,,A,V*06
$GNRMC,083133.40,A,3600.81977,N,12919.17785,E,0.655,143.58,190620,,,A,V*0E
$GNRMC,083133.50,A,3600.81972,N,12919.17784,E,0.654,148.56,190620,,,A,V*0F
$GNRMC,083133.60,A,3600.81967,N,12919.17783,E,0.618,150.01,190620,,,A,V*0C
$GNRMC,083133.70,A,3600.81966,N,12919.17781,E,0.487,150.27,190620,,,A,V*0E
$GNRMC,083133.80,A,3600.81962,N,12919.17779,E,0.443,154.96,190620,,,A,V*04
$GNRMC,083133.90,A,3600.81959,N,12919.17777,E,0.396,157.17,190620,,,A,V*06
$GNRMC,083134.00,A,3600.81958,N,12919.17776,E,0.251,153.25,190620,,,A,V*07
$GNRMC,083134.10,A,3600.81954,N,12919.17776,E,0.278,141.32,190620,,,A,V*04
$GNRMC,083134.20,A,3600.81953,N,12919.17776,E,0.227,129.33,190620,,,A,V*05
$GNRMC,083134.30,A,3600.81950,N,12919.17776,E,0.186,,190620,,,A,V*1B
$GNRMC,083134.40,A,3600.81945,N,12919.17776,E,0.267,143.50,190620,,,A,V*09
$GNRMC,083134.50,A,3600.81942,N,12919.17775,E,0.288,154.23,190620,,,A,V*0F
$GNRMC,083134.60,A,3600.81938,N,12919.17776,E,0.349,154.01,190620,,,A,V*0E
$GNRMC,083134.70,A,3600.81936,N,12919.17776,E,0.310,143.83,190620,,,A,V*01
$GNRMC,083134.80,A,3600.81937,N,12919.17777,E,0.307,109.86,190620,,,A,V*03
$GNRMC,083134.90,A,3600.81938,N,12919.17775,E,0.274,76.38,190620,,,A,V*36
$GNRMC,083135.00,A,3600.81936,N,12919.17772,E,0.151,,190620,,,A,V*17
$GNRMC,083135.10,A,3600.81932,N,12919.17771,E,0.055,,190620,,,A,V*14
$GNRMC,083135.20,A,3600.81929,N,12919.17770,E,0.158,,190620,,,A,V*10
$GNRMC,083135.30,A,3600.81926,N,12919.17768,E,0.279,167.56,190620,,,A,V*0A
$GNRMC,083135.40,A,3600.81922,N,12919.17766,E,0.407,202.38,190620,,,A,V*00
$GNRMC,083135.50,A,3600.81920,N,12919.17766,E,0.430,210.89,190620,,,A,V*0E
$GNRMC,083135.60,A,3600.81920,N,12919.17765,E,0.268,215.77,190620,,,A,V*01
$GNRMC,083135.70,A,3600.81917,N,12919.17768,E,0.181,,190620,,,A,V*15
$GNRMC,083135.80,A,3600.81915,N,12919.17767,E,0.160,,190620,,,A,V*18
$GNRMC,083135.90,A,3600.81912,N,12919.17766,E,0.190,,190620,,,A,V*10
$GNRMC,083136.00,A,3600.81909,N,12919.17763,E,0.263,215.47,190620,,,A,V*01
$GNRMC,083136.10,A,3600.81908,N,12919.17762,E,0.106,,190620,,,A,V*1B
$GNRMC,083136.20,A,3600.81907,N,12919.17761,E,0.071,,190620,,,A,V*15
$GNRMC,083136.30,A,3600.81904,N,12919.17759,E,0.179,,190620,,,A,V*15
$GNRMC,083136.40,A,3600.81902,N,12919.17757,E,0.201,228.97,190620,,,A,V*0E
$GNRMC,083136.50,A,3600.81899,N,12919.17757,E,0.238,219.84,190620,,,A,V*06
$GNRMC,083136.60,A,3600.81896,N,12919.17756,E,0.268,208.93,190620,,,A,V*08
$GNRMC,083136.70,A,3600.81894,N,12919.17756,E,0.226,201.46,190620,,,A,V*00
$GNRMC,083136.80,A,3600.81891,N,12919.17753,E,0.377,204.73,190620,,,A,V*09
$GNRMC,083136.90,A,3600.81889,N,12919.17754,E,0.316,196.26,190620,,,A,V*09
$GNRMC,083137.00,A,3600.81888,N,12919.17755,E,0.258,181.13,190620,,,A,V*0A
$GNRMC,083137.10,A,3600.81887,N,12919.17755,E,0.263,170.88,190620,,,A,V*00
$GNRMC,083137.20,A,3600.81885,N,12919.17754,E,0.266,174.52,190620,,,A,V*06
$GNRMC,083137.30,A,3600.81883,N,12919.17754,E,0.273,175.08,190620,,,A,V*0B
$GNRMC,083137.40,A,3600.81882,N,12919.17754,E,0.289,173.35,190620,,,A,V*00
$GNRMC,083137.50,A,3600.81881,N,12919.17754,E,0.265,168.80,190620,,,A,V*04
$GNRMC,083137.60,A,3600.81879,N,12919.17753,E,0.318,170.57,190620,,,A,V*0F
$GNRMC,083137.70,A,3600.81877,N,12919.17753,E,0.318,175.95,190620,,,A,V*0B
$GNRMC,083137.80,A,3600.81877,N,12919.17753,E,0.264,173.64,190620,,,A,V*06
$GNRMC,083137.90,A,3600.81876,N,12919.17754,E,0.243,159.59,190620,,,A,V*02
$GNRMC,083138.00,A,3600.81877,N,12919.17753,E,0.153,,190620,,,A,V*1F
$GNRMC,083138.10,A,3600.81877,N,12919.17753,E,0.197,119.23,190620,,,A,V*00
$GNRMC,083138.20,A,3600.81879,N,12919.17753,E,0.272,63.69,190620,,,A,V*37
$GNRMC,083138.30,A,3600.81878,N,12919.17752,E,0.211,46.55,190620,,,A,V*3B
$GNRMC,083138.40,A,3600.81878,N,12919.17752,E,0.209,34.56,190620,,,A,V*33
$GNRMC,083138.50,A,3600.81878,N,12919.17752,E,0.203,23.00,190620,,,A,V*3D
$GNRMC,083138.60,A,3600.81878,N,12919.17751,E,0.182,,190620,,,A,V*18
$GNRMC,083138.70,A,3600.81878,N,12919.17750,E,0.190,,190620,,,A,V*1B
$GNRMC,083138.80,A,3600.81878,N,12919.17749,E,0.196,354.10,190620,,,A,V*07
$GNRMC,083138.90,A,3600.81877,N,12919.17750,E,0.064,,190620,,,A,V*10
$GNRMC,083139.00,A,3600.81874,N,12919.17750,E,0.113,,190620,,,A,V*1A
$GNRMC,083139.10,A,3600.81870,N,12919.17750,E,0.396,144.83,190620,,,A,V*04
$GNRMC,083139.20,A,3600.81867,N,12919.17749,E,0.493,170.20,190620,,,A,V*05
$GNRMC,083139.30,A,3600.81864,N,12919.17746,E,0.575,185.77,190620,,,A,V*09
$GNRMC,083139.40,A,3600.81862,N,12919.17747,E,0.538,185.06,190620,,,A,V*06
$GNRMC,083139.50,A,3600.81860,N,12919.17747,E,0.558,181.16,190620,,,A,V*06
$GNRMC,083139.60,A,3600.81857,N,12919.17747,E,0.605,181.40,190620,,,A,V*09
$GNRMC,083139.70,A,3600.81855,N,12919.17748,E,0.636,179.23,190620,,,A,V*07
$GNRMC,083139.80,A,3600.81854,N,12919.17749,E,0.564,171.72,190620,,,A,V*00
$GNRMC,083139.90,A,3600.81852,N,12919.17750,E,0.553,164.75,190620,,,A,V*08
$GNRMC,083140.00,A,3600.81852,N,12919.17748,E,0.427,166.24,190620,,,A,V*02
$GNRMC,083140.10,A,3600.81852,N,12919.17746,E,0.307,177.06,190620,,,A,V*08
$GNRMC,083140.20,A,3600.81851,N,12919.17743,E,0.374,201.38,190620,,,A,V*06
$GNRMC,083140.30,A,3600.81854,N,12919.17743,E,0.308,236.06,190620,,,A,V*00
$GNRMC,083140.40,A,3600.81855,N,12919.17743,E,0.223,265.37,190620,,,A,V*0A
$GNRMC,083140.50,A,3600.81857,N,12919.17742,E,0.304,302.78,190620,,,A,V*07
$GNRMC,083140.60,A,3600.81858,N,12919.17737,E,0.522,307.15,190620,,,A,V*05
$GNRMC,083140.70,A,3600.81861,N,12919.17736,E,0.548,318.35,190620,,,A,V*0F
$GNRMC,083140.80,A,3600.81863,N,12919.17734,E,0.628,327.10,190620,,,A,V*0E
$GNRMC,083140.90,A,3600.81862,N,12919.17732,E,0.531,323.53,190620,,,A,V*00
$GNRMC,083141.00,A,3600.81861,N,12919.17730,E,0.411,314.25,190620,,,A,V*0F
$GNRMC,083141.10,A,3600.81862,N,12919.17727,E,0.553,303.01,190620,,,A,V*0C
$GNRMC,083141.20,A,3600.81862,N,12919.17722,E,0.764,293.69,190620,,,A,V*0A
$GNRMC,083141.30,A,3600.81865,N,12919.17720,E,0.808,300.71,190620,,,A,V*09
$GNRMC,083141.40,A,3600.81865,N,12919.17720,E,0.677,305.98,190620,,,A,V*0A
$GNRMC,083141.50,A,3600.81865,N,12919.17720,E,0.561,308.81,190620,,,A,V*0A
$GNRMC,083141.60,A,3600.81865,N,12919.17720,E,0.439,312.03,190620,,,A,V*04
$GNRMC,083141.70,A,3600.81864,N,12919.17721,E,0.242,313.28,190620,,,A,V*07
$GNRMC,083141.80,A,3600.81862,N,12919.17723,E,0.056,,190620,,,A,V*1E
$GNRMC,083141.90,A,3600.81861,N,12919.17725,E,0.085,,190620,,,A,V*14
$GNRMC,083142.00,A,3600.81860,N,12919.17726,E,0.192,,190620,,,A,V*1B
$GNRMC,083142.10,A,3600.81859,N,12919.17727,E,0.268,69.71,190620,,,A,V*30
$GNRMC,083142.20,A,3600.81858,N,12919.17727,E,0.205,91.68,190620,,,A,V*36
$GNRMC,083142.30,A,3600.81858,N,12919.17726,E,0.099,,190620,,,A,V*19
$GNRMC,083142.40,A,3600.81858,N,12919.17726,E,0.117,,190620,,,A,V*19
$GNRMC,083142.50,A,3600.81857,N,12919.17726,E,0.066,,190620,,,A,V*10
$GNRMC,083142.60,A,3600.81856,N,12919.17725,E,0.085,,190620,,,A,V*1C
$GNRMC,083142.70,A,3600.81855,N,12919.17722,E,0.209,175.14,190620,,,A,V*07
$GNRMC,083142.80,A,3600.81856,N,12919.17717,E,0.424,245.63,190620,,,A,V*04
$GNRMC,083142.90,A,3600.81857,N,12919.17715,E,0.405,268.36,190620,,,A,V*0A
$GNRMC,083143.00,A,3600.81859,N,12919.17715,E,0.398,287.38,190620,,,A,V*00
$GNRMC,083143.10,A,3600.81857,N,12919.17714,E,0.293,284.56,190620,,,A,V*0F
$GNRMC,083143.20,A,3600.81857,N,12919.17715,E,0.198,282.98,190620,,,A,V*01
$GNRMC,083143.30,A,3600.81857,N,12919.17716,E,0.116,,190620,,,A,V*12
$GNRMC,083143.40,A,3600.81857,N,12919.17717,E,0.055,,190620,,,A,V*12
$GNRMC,083143.50,A,3600.81855,N,12919.17718,E,0.065,,190620,,,A,V*1D
$GNRMC,083143.60,A,3600.81854,N,12919.17719,E,0.108,,190620,,,A,V*14
$GNRMC,083143.70,A,3600.81854,N,12919.17720,E,0.169,,190620,,,A,V*18
$GNRMC,083143.80,A,3600.81854,N,12919.17722,E,0.255,55.05,190620,,,A,V*32
$GNRMC,083143.90,A,3600.81855,N,12919.17723,E,0.262,64.34,190620,,,A,V*37
$GNRMC,083144.00,A,3600.81857,N,12919.17725,E,0.336,57.02,190620,,,A,V*38
$GNRMC,083144.10,A,3600.81858,N,12919.17727,E,0.428,53.85,190620,,,A,V*37
$GNRMC,083144.20,A,3600.81858,N,12919.17730,E,0.477,59.03,190620,,,A,V*3C
$GNRMC,083144.30,A,3600.81857,N,12919.17733,E,0.524,67.08,190620,,,A,V*30
$GNRMC,083144.40,A,3600.81856,N,12919.17734,E,0.472,77.63,190620,,,A,V*3F
$GNRMC,083144.50,A,3600.81853,N,12919.17734,E,0.449,97.54,190620,,,A,V*39
$GNRMC,083144.60,A,3600.81851,N,12919.17732,E,0.372,121.81,190620,,,A,V*05
$GNRMC,083144.70,A,3600.81848,N,12919.17731,E,0.464,149.64,190620,,,A,V*0A
$GNRMC,083144.80,A,3600.81846,N,12919.17732,E,0.519,158.96,190620,,,A,V*0E
$GNRMC,083144.90,A,3600.81843,N,12919.17730,E,0.576,170.77,190620,,,A,V*04
$GNRMC,083145.00,A,3600.81843,N,12919.17729,E,0.478,178.22,190620,,,A,V*03
$GNRMC,083145.10,A,3600.81843,N,12919.17727,E,0.394,187.57,190620,,,A,V*0B
$GNRMC,083145.20,A,3600.81843,N,12919.17724,E,0.383,204.98,190620,,,A,V*06
$GNRMC,083145.30,A,3600.81841,N,12919.17722,E,0.469,220.91,190620,,,A,V*0F
$GNRMC,083145.40,A,3600.81841,N,12919.17719,E,0.501,229.91,190620,,,A,V*06
$GNRMC,083145.50,A,3600.81839,N,12919.17717,E,0.571,231.67,190620,,,A,V*01
$GNRMC,083145.60,A,3600.81837,N,12919.17714,E,0.643,233.00,190620,,,A,V*0E
$GNRMC,083145.70,A,3600.81836,N,12919.17713,E,0.577,235.16,190620,,,A,V*0C
$GNRMC,083145.80,A,3600.81838,N,12919.17713,E,0.351,242.48,190620,,,A,V*04
$GNRMC,083145.90,A,3600.81841,N,12919.17715,E,0.202,261.67,190620,,,A,V*06
$GNRMC,083146.00,A,3600.81841,N,12919.17715,E,0.196,292.43,190620,,,A,V*08
$GNRMC,083146.10,A,3600.81842,N,12919.17714,E,0.251,310.64,190620,,,A,V*0D
$GNRMC,083146.20,A,3600.81842,N,12919.17712,E,0.306,308.51,190620,,,A,V*04
$GNRMC,083146.30,A,3600.81843,N,12919.17710,E,0.380,309.31,190620,,,A,V*0F
$GNRMC,083146.40,A,3600.81843,N,12919.17710,E,0.302,306.27,190620,,,A,V*0A
$GNRMC,083146.50,A,3600.81840,N,12919.17711,E,0.162,,190620,,,A,V*13
$GNRMC,083146.60,A,3600.81838,N,12919.17711,E,0.199,270.31,190620,,,A,V*02
$GNRMC,083146.70,A,3600.81838,N,12919.17710,E,0.210,237.70,190620,,,A,V*06
$GNRMC,083146.80,A,3600.81838,N,12919.17709,E,0.195,237.56,190620,,,A,V*0B
$GNRMC,083146.90,A,3600.81838,N,12919.17708,E,0.201,242.44,190620,,,A,V*04
$GNRMC,083147.00,A,3600.81838,N,12919.17708,E,0.136,,190620,,,A,V*11
$GNRMC,083147.10,A,3600.81837,N,12919.17710,E,0.124,,190620,,,A,V*15
$GNRMC,083147.20,A,3600.81836,N,12919.17713,E,0.253,152.64,190620,,,A,V*0D
$GNRMC,083147.30,A,3600.81837,N,12919.17715,E,0.272,119.28,190620,,,A,V*0F
$GNRMC,083147.40,A,3600.81837,N,12919.17717,E,0.386,98.99,190620,,,A,V*32
$GNRMC,083147.50,A,3600.81836,N,12919.17722,E,0.568,97.71,190620,,,A,V*3B
$GNRMC,083147.60,A,3600.81834,N,12919.17723,E,0.576,105.68,190620,,,A,V*06
$GNRMC,083147.70,A,3600.81832,N,12919.17722,E,0.483,118.80,190620,,,A,V*01
$GNRMC,083147.80,A,3600.81830,N,12919.17722,E,0.469,131.34,190620,,,A,V*0C
$GNRMC,083147.90,A,3600.81829,N,12919.17722,E,0.461,139.90,190620,,,A,V*0B
$GNRMC,083148.00,A,3600.81827,N,12919.17722,E,0.426,146.64,190620,,,A,V*03
$GNRMC,083148.10,A,3600.81827,N,12919.17723,E,0.373,145.80,190620,,,A,V*0D
$GNRMC,083148.20,A,3600.81829,N,12919.17724,E,0.299,131.17,190620,,,A,V*0F
$GNRMC,083148.30,A,3600.81831,N,12919.17726,E,0.299,107.39,190620,,,A,V*0C
$GNRMC,083148.40,A,3600.81831,N,12919.17726,E,0.241,94.38,190620,,,A,V*34
$GNRMC,083148.50,A,3600.81831,N,12919.17725,E,0.126,,190620,,,A,V*1C
$GNRMC,083148.60,A,3600.81829,N,12919.17721,E,0.172,,190620,,,A,V*13
$GNRMC,083148.70,A,3600.81827,N,12919.17719,E,0.316,193.04,190620,,,A,V*06
$GNRMC,083148.80,A,3600.81827,N,12919.17718,E,0.273,215.76,190620,,,A,V*02
$GNRMC,083148.90,A,3600.81829,N,12919.17717,E,0.199,233.45,190620,,,A,V*01
$GNRMC,083149.00,A,3600.81831,N,12919.17716,E,0.295,284.33,190620,,,A,V*03
$GNRMC,083149.10,A,3600.81833,N,12919.17714,E,0.437,301.87,190620,,,A,V*0F
$GNRMC,083149.20,A,3600.81834,N,12919.17712,E,0.532,306.08,190620,,,A,V*09
$GNRMC,083149.30,A,3600.81839,N,12919.17709,E,0.739,318.89,190620,,,A,V*00
$GNRMC,083149.40,A,3600.81842,N,12919.17707,E,0.891,323.63,190620,,,A,V*04
$GNRMC,083149.50,A,3600.81843,N,12919.17704,E,0.874,315.99,190620,,,A,V*0C
$GNRMC,083149.60,A,3600.81844,N,12919.17701,E,0.915,314.16,190620,,,A,V*0D
$GNRMC,083149.70,A,3600.81845,N,12919.17699,E,0.843,313.99,190620,,,A,V*0F
$GNRMC,083149.80,A,3600.81846,N,12919.17698,E,0.755,314.58,190620,,,A,V*00
$GNRMC,083149.90,A,3600.81847,N,12919.17699,E,0.577,320.37,190620,,,A,V*0D
$GNRMC,083150.00,A,3600.81847,N,12919.17703,E,0.385,337.21,190620,,,A,V*04
$GNRMC,083150.10,A,3600.81846,N,12919.17708,E,0.405,18.67,190620,,,A,V*3C
$GNRMC,083150.20,A,3600.81845,N,12919.17713,E,0.583,63.97,190620,,,A,V*3A
$GNRMC,083150.30,A,3600.81843,N,12919.17718,E,0.757,86.65,190620,,,A,V*3B
$GNRMC,083150.40,A,3600.81843,N,12919.17722,E,0.843,91.59,190620,,,A,V*36
$GNRMC,083150.50,A,3600.81842,N,12919.17727,E,0.969,92.80,190620,,,A,V*3D
$GNRMC,083150.60,A,3600.81842,N,12919.17732,E,1.056,91.27,190620,,,A,V*30
$GNRMC,083150.70,A,3600.81843,N,12919.17736,E,1.116,88.04,190620,,,A,V*38
$GNRMC,083150.80,A,3600.81844,N,12919.17741,E,1.161,84.61,190620,,,A,V*3F
$GNRMC,083150.90,A,3600.81843,N,12919.17743,E,1.069,87.50,190620,,,A,V*33
$GNRMC,083151.00,A,3600.81843,N,12919.17745,E,0.954,89.82,190620,,,A,V*3A
$GNRMC,083151.10,A,3600.81843,N,12919.17748,E,0.944,86.52,190620,,,A,V*35
$GNRMC,083151.20,A,3600.81844,N,12919.17751,E,0.882,83.83,190620,,,A,V*3B
$GNRMC,083151.30,A,3600.81845,N,12919.17754,E,0.954,78.77,190620,,,A,V*3B
$GNRMC,083151.40,A,3600.81846,N,12919.17757,E,0.936,75.33,190620,,,A,V*35
$GNRMC,083151.50,A,3600.81846,N,12919.17759,E,0.855,75.65,190620,,,A,V*3D
$GNRMC,083151.60,A,3600.81848,N,12919.17765,E,1.062,73.12,190620,,,A,V*34
$GNRMC,083151.70,A,3600.81850,N,12919.17770,E,1.173,70.77,190620,,,A,V*39
$GNRMC,083151.80,A,3600.81847,N,12919.17772,E,1.011,81.23,190620,,,A,V*38
$GNRMC,083151.90,A,3600.81844,N,12919.17774,E,0.882,92.38,190620,,,A,V*37
$GNRMC,083152.00,A,3600.81842,N,12919.17775,E,0.806,102.47,190620,,,A,V*06
$GNRMC,083152.10,A,3600.81839,N,12919.17777,E,0.833,115.69,190620,,,A,V*05
$GNRMC,083152.20,A,3600.81836,N,12919.17781,E,0.991,118.92,190620,,,A,V*00
$GNRMC,083152.30,A,3600.81835,N,12919.17787,E,1.136,114.31,190620,,,A,V*05
$GNRMC,083152.40,A,3600.81833,N,12919.17789,E,1.045,118.22,190620,,,A,V*01
$GNRMC,083152.50,A,3600.81831,N,12919.17790,E,0.962,123.32,190620,,,A,V*0E
$GNRMC,083152.60,A,3600.81830,N,12919.17792,E,0.895,122.36,190620,,,A,V*02
$GNRMC,083152.70,A,3600.81831,N,12919.17794,E,0.797,115.52,190620,,,A,V*0F
$GNRMC,083152.80,A,3600.81833,N,12919.17796,E,0.657,104.84,190620,,,A,V*06
$GNRMC,083152.90,A,3600.81834,N,12919.17798,E,0.630,93.55,190620,,,A,V*3C
$GNRMC,083153.00,A,3600.81835,N,12919.17800,E,0.644,88.49,190620,,,A,V*3F
$GNRMC,083153.10,A,3600.81835,N,12919.17802,E,0.610,86.77,190620,,,A,V*3E
$GNRMC,083153.20,A,3600.81834,N,12919.17805,E,0.656,90.77,190620,,,A,V*3E
$GNRMC,083153.30,A,3600.81833,N,12919.17808,E,0.733,91.83,190620,,,A,V*3D
$GNRMC,083153.40,A,3600.81833,N,12919.17811,E,0.795,93.00,190620,,,A,V*37
$GNRMC,083153.50,A,3600.81831,N,12919.17815,E,0.859,97.14,190620,,,A,V*3E
$GNRMC,083153.60,A,3600.81830,N,12919.17820,E,0.995,101.05,190620,,,A,V*05
$GNRMC,083153.70,A,3600.81828,N,12919.17824,E,1.064,105.51,190620,,,A,V*0A
$GNRMC,083153.80,A,3600.81826,N,12919.17826,E,1.013,109.80,190620,,,A,V*09
$GNRMC,083153.90,A,3600.81824,N,12919.17830,E,1.044,110.51,190620,,,A,V*0B
$GNRMC,083154.00,A,3600.81823,N,12919.17835,E,1.111,109.54,190620,,,A,V*0B
$GNRMC,083154.10,A,3600.81822,N,12919.17838,E,1.087,109.82,190620,,,A,V*03
$GNRMC,083154.20,A,3600.81822,N,12919.17839,E,0.930,109.30,190620,,,A,V*0C
$GNRMC,083154.30,A,3600.81821,N,12919.17841,E,0.844,109.73,190620,,,A,V*04
$GNRMC,083154.40,A,3600.81820,N,12919.17843,E,0.825,109.97,190620,,,A,V*0D
$GNRMC,083154.50,A,3600.81820,N,12919.17845,E,0.784,107.57,190620,,,A,V*0C
$GNRMC,083154.60,A,3600.81820,N,12919.17846,E,0.664,103.70,190620,,,A,V*02
$GNRMC,083154.70,A,3600.81819,N,12919.17847,E,0.632,106.81,190620,,,A,V*00
$GNRMC,083154.80,A,3600.81817,N,12919.17849,E,0.664,116.29,190620,,,A,V*0F
$GNRMC,083154.90,A,3600.81814,N,12919.17850,E,0.704,128.36,190620,,,A,V*01
$GNRMC,083155.00,A,3600.81811,N,12919.17851,E,0.726,139.53,190620,,,A,V*0E
$GNRMC,083155.10,A,3600.81808,N,12919.17851,E,0.723,146.65,190620,,,A,V*0F
$GNRMC,083155.20,A,3600.81806,N,12919.17853,E,0.748,147.69,190620,,,A,V*00
$GNRMC,083155.30,A,3600.81804,N,12919.17854,E,0.796,150.11,190620,,,A,V*0E
$GNRMC,083155.40,A,3600.81802,N,12919.17856,E,0.786,149.26,190620,,,A,V*00
$GNRMC,083155.50,A,3600.81800,N,12919.17858,E,0.772,145.31,190620,,,A,V*0C
$GNRMC,083155.60,A,3600.81798,N,12919.17858,E,0.747,149.58,190620,,,A,V*04
$GNRMC,083155.70,A,3600.81796,N,12919.17859,E,0.750,153.84,190620,,,A,V*06
$GNRMC,083155.80,A,3600.81794,N,12919.17859,E,0.722,158.00,190620,,,A,V*09
$GNRMC,083155.90,A,3600.81793,N,12919.17859,E,0.620,161.54,190620,,,A,V*07
$GNRMC,083156.00,A,3600.81793,N,12919.17858,E,0.516,163.77,190620,,,A,V*09
$GNRMC,083156.10,A,3600.81793,N,12919.17859,E,0.423,162.37,190620,,,A,V*0B
$GNRMC,083156.20,A,3600.81792,N,12919.17859,E,0.406,160.07,190620,,,A,V*0F
$GNRMC,083156.30,A,3600.81789,N,12919.17859,E,0.482,162.56,190620,,,A,V*0E
$GNRMC,083156.40,A,3600.81787,N,12919.17859,E,0.566,168.42,190620,,,A,V*03
$GNRMC,083156.50,A,3600.81784,N,12919.17859,E,0.621,177.12,190620,,,A,V*0A
$GNRMC,083156.60,A,3600.81782,N,12919.17857,E,0.664,187.96,190620,,,A,V*03
$GNRMC,083156.70,A,3600.81781,N,12919.17855,E,0.639,196.98,190620,,,A,V*05
$GNRMC,083156.80,A,3600.81779,N,12919.17853,E,0.727,203.57,190620,,,A,V*09
$GNRMC,083156.90,A,3600.81777,N,12919.17850,E,0.780,211.08,190620,,,A,V*01
$GNRMC,083157.00,A,3600.81774,N,12919.17846,E,0.923,216.49,190620,,,A,V*08
$GNRMC,083157.10,A,3600.81772,N,12919.17843,E,0.930,221.03,190620,,,A,V*02
$GNRMC,083157.20,A,3600.81770,N,12919.17840,E,1.012,223.97,190620,,,A,V*07
$GNRMC,083157.30,A,3600.81767,N,12919.17836,E,1.069,226.80,190620,,,A,V*0E
$GNRMC,083157.40,A,3600.81766,N,12919.17833,E,1.040,229.47,190620,,,A,V*02
$GNRMC,083157.50,A,3600.81764,N,12919.17831,E,1.019,227.42,190620,,,A,V*04
$GNRMC,083157.60,A,3600.81761,N,12919.17829,E,1.064,224.68,190620,,,A,V*0A
$GNRMC,083157.70,A,3600.81758,N,12919.17826,E,1.090,223.81,190620,,,A,V*05
$GNRMC,083157.80,A,3600.81756,N,12919.17822,E,1.138,225.02,190620,,,A,V*0E
$GNRMC,083157.90,A,3600.81754,N,12919.17818,E,1.138,230.65,190620,,,A,V*01
$GNRMC,083158.00,A,3600.81754,N,12919.17813,E,1.169,237.04,190620,,,A,V*08
$GNRMC,083158.10,A,3600.81753,N,12919.17809,E,1.154,242.23,190620,,,A,V*0C
$GNRMC,083158.20,A,3600.81754,N,12919.17806,E,1.108,249.02,190620,,,A,V*06
$GNRMC,083158.30,A,3600.81754,N,12919.17803,E,1.052,252.97,190620,,,A,V*0A
$GNRMC,083158.40,A,3600.81752,N,12919.17799,E,1.060,252.97,190620,,,A,V*06
$GNRMC,083158.50,A,3600.81751,N,12919.17795,E,1.094,253.09,190620,,,A,V*05
$GNRMC,083158.60,A,3600.81750,N,12919.17791,E,1.155,253.45,190620,,,A,V*07
$GNRMC,083158.70,A,3600.81749,N,12919.17785,E,1.257,255.02,190620,,,A,V*0F
$GNRMC,083158.80,A,3600.81749,N,12919.17779,E,1.314,258.81,190620,,,A,V*03
$GNRMC,083158.90,A,3600.81750,N,12919.17774,E,1.329,263.63,190620,,,A,V*0D
$GNRMC,083159.00,A,3600.81751,N,12919.17769,E,1.335,267.68,190620,,,A,V*0A
$GNRMC,083159.10,A,3600.81752,N,12919.17767,E,1.205,272.41,190620,,,A,V*0B
$GNRMC,083159.20,A,3600.81753,N,12919.17764,E,1.057,276.24,190620,,,A,V*08
$GNRMC,083159.30,A,3600.81756,N,12919.17762,E,1.039,285.68,190620,,,A,V*06
$GNRMC,083159.40,A,3600.81759,N,12919.17759,E,1.048,294.17,190620,,,A,V*08
$GNRMC,083159.50,A,3600.81762,N,12919.17757,E,1.089,300.33,190620,,,A,V*08
$GNRMC,083159.60,A,3600.81763,N,12919.17753,E,1.099,301.55,190620,,,A,V*0E
$GNRMC,083159.70,A,3600.81764,N,12919.17751,E,1.083,301.03,190620,,,A,V*02
$GNRMC,083159.80,A,3600.81766,N,12919.17747,E,1.123,301.76,190620,,,A,V*01
$GNRMC,083159.90,A,3600.81769,N,12919.17742,E,1.199,302.12,190620,,,A,V*0A
$GNRMC,083200.00,A,3600.81770,N,12919.17738,E,1.232,301.80,190620,,,A,V*03
$GNRMC,083200.10,A,3600.81772,N,12919.17735,E,1.248,302.59,190620,,,A,V*07
$GNRMC,083200.20,A,3600.81774,N,12919.17732,E,1.250,303.38,190620,,,A,V*0A
$GNRMC,083200.30,A,3600.81776,N,12919.17728,E,1.303,305.54,190620,,,A,V*09
$GNRMC,083200.40,A,3600.81779,N,12919.17727,E,1.257,311.62,190620,,,A,V*0E
$GNRMC,083200.50,A,3600.81782,N,12919.17726,E,1.182,317.11,190620,,,A,V*03
$GNRMC,083200.60,A,3600.81784,N,12919.17725,E,1.126,319.57,190620,,,A,V*07
$GNRMC,083200.70,A,3600.81786,N,12919.17723,E,1.147,320.73,190620,,,A,V*09
$GNRMC,083200.80,A,3600.81789,N,12919.17722,E,1.128,324.29,190620,,,A,V*0A
$GNRMC,083200.90,A,3600.81790,N,12919.17721,E,1.033,327.13,190620,,,A,V*01
$GNRMC,083201.00,A,3600.81792,N,12919.17721,E,0.983,332.53,190620,,,A,V*08
$GNRMC,083201.10,A,3600.81796,N,12919.17721,E,1.019,339.93,190620,,,A,V*01
$GNRMC,083201.20,A,3600.81798,N,12919.17722,E,0.998,348.47,190620,,,A,V*01
$GNRMC,083201.30,A,3600.81800,N,12919.17723,E,0.945,354.00,190620,,,A,V*01
$GNRMC,083201.40,A,3600.81803,N,12919.17724,E,0.974,358.46,190620,,,A,V*0E
$GNRMC,083201.50,A,3600.81804,N,12919.17725,E,0.908,359.27,190620,,,A,V*04
$GNRMC,083201.60,A,3600.81807,N,12919.17724,E,0.928,358.60,190620,,,A,V*05
$GNRMC,083201.70,A,3600.81809,N,12919.17726,E,0.968,2.74,190620,,,A,V*05
$GNRMC,083201.80,A,3600.81812,N,12919.17727,E,0.983,9.81,190620,,,A,V*05
$GNRMC,083201.90,A,3600.81813,N,12919.17728,E,0.854,7.62,190620,,,A,V*02
$GNRMC,083202.00,A,3600.81811,N,12919.17731,E,0.603,23.42,190620,,,A,V*3A
$GNRMC,083202.10,A,3600.81811,N,12919.17734,E,0.592,38.52,190620,,,A,V*3E
$GNRMC,083202.20,A,3600.81813,N,12919.17736,E,0.670,41.84,190620,,,A,V*37
$GNRMC,083202.30,A,3600.81813,N,12919.17739,E,0.689,46.56,190620,,,A,V*37
$GNRMC,083202.40,A,3600.81815,N,12919.17743,E,0.809,51.19,190620,,,A,V*30
$GNRMC,083202.50,A,3600.81817,N,12919.17746,E,0.907,51.68,190620,,,A,V*3F
$GNRMC,083202.60,A,3600.81818,N,12919.17749,E,0.906,54.36,190620,,,A,V*33
$GNRMC,083202.70,A,3600.81819,N,12919.17752,E,0.908,54.12,190620,,,A,V*31
$GNRMC,083202.80,A,3600.81821,N,12919.17754,E,0.904,50.11,190620,,,A,V*38
$GNRMC,083202.90,A,3600.81823,N,12919.17757,E,0.941,47.95,190620,,,A,V*33
$GNRMC,083203.00,A,3600.81825,N,12919.17760,E,1.013,46.85,190620,,,A,V*36
$GNRMC,083203.10,A,3600.81826,N,12919.17762,E,0.970,45.20,190620,,,A,V*37
$GNRMC,083203.20,A,3600.81828,N,12919.17764,E,0.955,45.81,190620,,,A,V*30
$GNRMC,083203.30,A,3600.81828,N,12919.17766,E,0.830,49.03,190620,,,A,V*37
$GNRMC,083203.40,A,3600.81828,N,12919.17768,E,0.793,55.65,190620,,,A,V*35
$GNRMC,083203.50,A,3600.81828,N,12919.17772,E,0.841,63.88,190620,,,A,V*39
$GNRMC,083203.60,A,3600.81828,N,12919.17776,E,0.863,69.92,190620,,,A,V*3F
$GNRMC,083203.70,A,3600.81826,N,12919.17779,E,0.866,79.63,190620,,,A,V*35
$GNRMC,083203.80,A,3600.81825,N,12919.17785,E,1.037,88.51,190620,,,A,V*38
$GNRMC,083203.90,A,3600.81823,N,12919.17790,E,1.152,95.31,190620,,,A,V*33
$GNRMC,083204.00,A,3600.81820,N,12919.17794,E,1.235,103.65,190620,,,A,V*07
$GNRMC,083204.10,A,3600.81818,N,12919.17799,E,1.282,108.80,190620,,,A,V*0C
$GNRMC,083204.20,A,3600.81816,N,12919.17802,E,1.244,111.70,190620,,,A,V*01
$GNRMC,083204.30,A,3600.81814,N,12919.17806,E,1.229,115.13,190620,,,A,V*0C
$GNRMC,083204.40,A,3600.81812,N,12919.17809,E,1.214,115.53,190620,,,A,V*08
$GNRMC,083204.50,A,3600.81811,N,12919.17812,E,1.152,114.85,190620,,,A,V*0B
$GNRMC,083204.60,A,3600.81810,N,12919.17816,E,1.131,112.34,190620,,,A,V*04
$GNRMC,083204.70,A,3600.81808,N,12919.17821,E,1.184,110.73,190620,,,A,V*07
$GNRMC,083204.80,A,3600.81807,N,12919.17824,E,1.119,113.98,190620,,,A,V*00
$GNRMC,083204.90,A,3600.81804,N,12919.17826,E,1.050,121.16,190620,,,A,V*0B
$GNRMC,083205.00,A,3600.81801,N,12919.17827,E,0.997,131.58,190620,,,A,V*0F
$GNRMC,083205.10,A,3600.81797,N,12919.17827,E,0.954,142.30,190620,,,A,V*0B
$GNRMC,083205.20,A,3600.81794,N,12919.17828,E,0.985,149.49,190620,,,A,V*0D
$GNRMC,083205.30,A,3600.81791,N,12919.17829,E,0.975,154.21,190620,,,A,V*05
$GNRMC,083205.40,A,3600.81787,N,12919.17830,E,1.065,158.92,190620,,,A,V*00
$GNRMC,083205.50,A,3600.81784,N,12919.17830,E,1.109,163.08,190620,,,A,V*02
$GNRMC,083205.60,A,3600.81780,N,12919.17832,E,1.171,163.84,190620,,,A,V*0C
$GNRMC,083205.70,A,3600.81777,N,12919.17832,E,1.144,165.67,190620,,,A,V*08
$GNRMC,083205.80,A,3600.81774,N,12919.17833,E,1.125,166.89,190620,,,A,V*01
$GNRMC,083205.90,A,3600.81771,N,12919.17834,E,1.085,166.03,190620,,,A,V*0B
$GNRMC,083206.00,A,3600.81769,N,12919.17834,E,0.983,167.42,190620,,,A,V*02
$GNRMC,083206.10,A,3600.81766,N,12919.17835,E,0.949,169.18,190620,,,A,V*0A
$GNRMC,083206.20,A,3600.81763,N,12919.17835,E,0.919,172.76,190620,,,A,V*0B
$GNRMC,083206.30,A,3600.81761,N,12919.17834,E,0.924,176.77,190620,,,A,V*02
$GNRMC,083206.40,A,3600.81758,N,12919.17834,E,0.887,180.87,190620,,,A,V*01
$GNRMC,083206.50,A,3600.81756,N,12919.17832,E,0.862,187.67,190620,,,A,V*0A
$GNRMC,083206.60,A,3600.81754,N,12919.17830,E,0.825,196.46,190620,,,A,V*09
$GNRMC,083206.70,A,3600.81753,N,12919.17828,E,0.776,205.30,190620,,,A,V*07
$GNRMC,083206.80,A,3600.81751,N,12919.17825,E,0.839,215.68,190620,,,A,V*0F
$GNRMC,083206.90,A,3600.81750,N,12919.17821,E,0.865,229.67,190620,,,A,V*02
$GNRMC,083207.00,A,3600.81749,N,12919.17816,E,0.974,240.34,190620,,,A,V*0E
$GNRMC,083207.10,A,3600.81749,N,12919.17813,E,0.963,247.47,190620,,,A,V*0F
$GNRMC,083207.20,A,3600.81748,N,12919.17809,E,1.016,252.59,190620,,,A,V*07
$GNRMC,083207.30,A,3600.81747,N,12919.17804,E,1.067,252.48,190620,,,A,V*02
$GNRMC,083207.40,A,3600.81746,N,12919.17801,E,1.036,252.35,190620,,,A,V*0F
$GNRMC,083207.50,A,3600.81744,N,12919.17798,E,1.038,252.48,190620,,,A,V*07
$GNRMC,083207.60,A,3600.81743,N,12919.17795,E,0.996,251.89,190620,,,A,V*0C
$GNRMC,083207.70,A,3600.81742,N,12919.17793,E,0.935,251.71,190620,,,A,V*04
$GNRMC,083207.80,A,3600.81742,N,12919.17791,E,0.914,253.04,190620,,,A,V*0A
$GNRMC,083207.90,A,3600.81741,N,12919.17788,E,0.879,254.71,190620,,,A,V*0F
$GNRMC,083208.00,A,3600.81741,N,12919.17785,E,0.902,259.28,190620,,,A,V*08
$GNRMC,083208.10,A,3600.81741,N,12919.17781,E,0.960,263.94,190620,,,A,V*07
$GNRMC,083208.20,A,3600.81741,N,12919.17776,E,1.097,266.50,190620,,,A,V*01
$GNRMC,083208.30,A,3600.81740,N,12919.17771,E,1.144,267.21,190620,,,A,V*0E
$GNRMC,083208.40,A,3600.81740,N,12919.17767,E,1.212,265.98,190620,,,A,V*0E
$GNRMC,083208.50,A,3600.81738,N,12919.17764,E,1.122,259.77,190620,,,A,V*0D
$GNRMC,083208.60,A,3600.81735,N,12919.17761,E,1.109,251.48,190620,,,A,V*0B
$GNRMC,083208.70,A,3600.81733,N,12919.17758,E,1.134,247.97,190620,,,A,V*0D
$GNRMC,083208.80,A,3600.81732,N,12919.17755,E,1.102,246.93,190620,,,A,V*0E
$GNRMC,083208.90,A,3600.81730,N,12919.17749,E,1.233,247.30,190620,,,A,V*09
$GNRMC,083209.00,A,3600.81728,N,12919.17745,E,1.269,248.23,190620,,,A,V*06
$GNRMC,083209.10,A,3600.81726,N,12919.17741,E,1.262,248.04,190620,,,A,V*03
$GNRMC,083209.20,A,3600.81725,N,12919.17737,E,1.266,248.68,190620,,,A,V*0C
$GNRMC,083209.30,A,3600.81724,N,12919.17732,E,1.318,252.43,190620,,,A,V*03
$GNRMC,083209.40,A,3600.81724,N,12919.17728,E,1.365,254.76,190620,,,A,V*05
$GNRMC,083209.50,A,3600.81722,N,12919.17723,E,1.354,253.67,190620,,,A,V*0C
$GNRMC,083209.60,A,3600.81722,N,12919.17720,E,1.288,255.93,190620,,,A,V*01
$GNRMC,083209.70,A,3600.81720,N,12919.17716,E,1.238,253.85,190620,,,A,V*0D
$GNRMC,083209.80,A,3600.81718,N,12919.17713,E,1.215,250.33,190620,,,A,V*0D
$GNRMC,083209.90,A,3600.81717,N,12919.17711,E,1.109,250.50,190620,,,A,V*0A
$GNRMC,083210.00,A,3600.81717,N,12919.17709,E,1.018,253.13,190620,,,A,V*07
$GNRMC,083210.10,A,3600.81717,N,12919.17707,E,0.922,256.16,190620,,,A,V*09
$GNRMC,083210.20,A,3600.81717,N,12919.17706,E,0.763,255.91,190620,,,A,V*0C
$GNRMC,083210.30,A,3600.81716,N,12919.17707,E,0.543,249.90,190620,,,A,V*01
$GNRMC,083210.40,A,3600.81715,N,12919.17708,E,0.332,240.76,190620,,,A,V*0B
$GNRMC,083210.50,A,3600.81715,N,12919.17710,E,0.204,227.66,190620,,,A,V*07
$GNRMC,083210.60,A,3600.81714,N,12919.17712,E,0.241,188.80,190620,,,A,V*08
$GNRMC,083210.70,A,3600.81712,N,12919.17714,E,0.325,160.94,190620,,,A,V*09
$GNRMC,083210.80,A,3600.81710,N,12919.17715,E,0.404,155.47,190620,,,A,V*09
$GNRMC,083210.90,A,3600.81708,N,12919.17716,E,0.471,155.41,190620,,,A,V*06
$GNRMC,083211.00,A,3600.81707,N,12919.17717,E,0.470,152.03,190620,,,A,V*00
$GNRMC,083211.10,A,3600.81707,N,12919.17719,E,0.416,145.26,190620,,,A,V*0E
$GNRMC,083211.20,A,3600.81707,N,12919.17719,E,0.337,138.67,190620,,,A,V*06
$GNRMC,083211.30,A,3600.81707,N,12919.17720,E,0.300,135.13,190620,,,A,V*07
$GNRMC,083211.40,A,3600.81706,N,12919.17721,E,0.296,135.19,190620,,,A,V*04
$GNRMC,083211.50,A,3600.81706,N,12919.17721,E,0.212,138.45,190620,,,A,V*0D
$GNRMC,083211.60,A,3600.81706,N,12919.17720,E,0.084,,190620,,,A,V*17
$GNRMC,083211.70,A,3600.81707,N,12919.17720,E,0.039,,190620,,,A,V*11
$GNRMC,083211.80,A,3600.81708,N,12919.17720,E,0.175,,190620,,,A,V*18
$GNRMC,083211.90,A,3600.81709,N,12919.17720,E,0.213,48.52,190620,,,A,V*3E
$GNRMC,083212.00,A,3600.81709,N,12919.17721,E,0.158,,190620,,,A,V*1C
$GNRMC,083212.10,A,3600.81710,N,12919.17722,E,0.259,31.01,190620,,,A,V*39
$GNRMC,083212.20,A,3600.81714,N,12919.17724,E,0.541,20.63,190620,,,A,V*32
$GNRMC,083212.30,A,3600.81720,N,12919.17727,E,0.930,20.32,190620,,,A,V*39
$GNRMC,083212.40,A,3600.81726,N,12919.17732,E,1.281,25.73,190620,,,A,V*3C
$GNRMC,083212.50,A,3600.81730,N,12919.17737,E,1.471,30.73,190620,,,A,V*32
$GNRMC,083212.60,A,3600.81733,N,12919.17742,E,1.484,36.88,190620,,,A,V*38
$GNRMC,083212.70,A,3600.81735,N,12919.17746,E,1.421,39.25,190620,,,A,V*3C
$GNRMC,083212.80,A,3600.81736,N,12919.17748,E,1.313,41.01,190620,,,A,V*31
$GNRMC,083212.90,A,3600.81739,N,12919.17752,E,1.334,42.52,190620,,,A,V*34
$GNRMC,083213.00,A,3600.81742,N,12919.17757,E,1.451,44.72,190620,,,A,V*35
$GNRMC,083213.10,A,3600.81745,N,12919.17763,E,1.555,49.13,190620,,,A,V*3B
$GNRMC,083213.20,A,3600.81746,N,12919.17769,E,1.577,53.53,190620,,,A,V*3E
$GNRMC,083213.30,A,3600.81748,N,12919.17772,E,1.510,54.99,190620,,,A,V*3B
$GNRMC,083213.40,A,3600.81750,N,12919.17775,E,1.413,52.67,190620,,,A,V*37
$GNRMC,083213.50,A,3600.81753,N,12919.17777,E,1.326,49.69,190620,,,A,V*32
$GNRMC,083213.60,A,3600.81754,N,12919.17780,E,1.247,48.17,190620,,,A,V*30
$GNRMC,083213.70,A,3600.81755,N,12919.17783,E,1.168,50.33,190620,,,A,V*32
$GNRMC,083213.80,A,3600.81757,N,12919.17787,E,1.177,54.98,190620,,,A,V*30
$GNRMC,083213.90,A,3600.81757,N,12919.17792,E,1.214,61.07,190620,,,A,V*33
$GNRMC,083214.00,A,3600.81758,N,12919.17797,E,1.310,65.08,190620,,,A,V*39
$GNRMC,083214.10,A,3600.81760,N,12919.17801,E,1.343,64.74,190620,,,A,V*3F
$GNRMC,083214.20,A,3600.81762,N,12919.17806,E,1.350,63.68,190620,,,A,V*31
$GNRMC,083214.30,A,3600.81765,N,12919.17809,E,1.345,58.62,190620,,,A,V*3E
$GNRMC,083214.40,A,3600.81769,N,12919.17812,E,1.362,49.82,190620,,,A,V*34
$GNRMC,083214.50,A,3600.81773,N,12919.17814,E,1.375,43.80,190620,,,A,V*36
$GNRMC,083214.60,A,3600.81776,N,12919.17817,E,1.388,40.46,190620,,,A,V*38
$GNRMC,083214.70,A,3600.81780,N,12919.17821,E,1.502,39.60,190620,,,A,V*3B
$GNRMC,083214.80,A,3600.81783,N,12919.17825,E,1.575,40.61,190620,,,A,V*3C
$GNRMC,083214.90,A,3600.81786,N,12919.17830,E,1.594,44.08,190620,,,A,V*38
$GNRMC,083215.00,A,3600.81789,N,12919.17836,E,1.628,48.50,190620,,,A,V*3C
$GNRMC,083215.10,A,3600.81792,N,12919.17840,E,1.625,49.04,190620,,,A,V*3B
$GNRMC,083215.20,A,3600.81794,N,12919.17844,E,1.603,49.62,190620,,,A,V*3E
$GNRMC,083215.30,A,3600.81796,N,12919.17849,E,1.597,52.65,190620,,,A,V*33
$GNRMC,083215.40,A,3600.81800,N,12919.17854,E,1.696,51.93,190620,,,A,V*30
$GNRMC,083215.50,A,3600.81803,N,12919.17861,E,1.802,53.05,190620,,,A,V*3A
$GNRMC,083215.60,A,3600.81805,N,12919.17866,E,1.751,56.07,190620,,,A,V*36
$GNRMC,083215.70,A,3600.81808,N,12919.17872,E,1.795,56.24,190620,,,A,V*36
$GNRMC,083215.80,A,3600.81812,N,12919.17876,E,1.857,52.37,190620,,,A,V*31
$GNRMC,083215.90,A,3600.81816,N,12919.17880,E,1.815,48.04,190620,,,A,V*30
$GNRMC,083216.00,A,3600.81820,N,12919.17883,E,1.799,43.89,190620,,,A,V*39
$GNRMC,083216.10,A,3600.81824,N,12919.17887,E,1.803,42.13,190620,,,A,V*36
$GNRMC,083216.20,A,3600.81826,N,12919.17890,E,1.699,43.67,190620,,,A,V*3E
$GNRMC,083216.30,A,3600.81829,N,12919.17894,E,1.690,44.16,190620,,,A,V*3C
$GNRMC,083216.40,A,3600.81832,N,12919.17901,E,1.760,49.43,190620,,,A,V*3F
$GNRMC,083216.50,A,3600.81834,N,12919.17909,E,1.890,57.89,190620,,,A,V*39
$GNRMC,083216.60,A,3600.81836,N,12919.17917,E,1.965,62.38,190620,,,A,V*30
$GNRMC,083216.70,A,3600.81837,N,12919.17923,E,1.943,65.71,190620,,,A,V*39
$GNRMC,083216.80,A,3600.81839,N,12919.17929,E,1.930,67.61,190620,,,A,V*35
$GNRMC,083216.90,A,3600.81842,N,12919.17935,E,1.965,65.95,190620,,,A,V*3C
$GNRMC,083217.00,A,3600.81845,N,12919.17941,E,1.980,62.68,190620,,,A,V*3E
$GNRMC,083217.10,A,3600.81847,N,12919.17947,E,1.949,63.74,190620,,,A,V*32
$GNRMC,083217.20,A,3600.81849,N,12919.17953,E,1.932,64.95,190620,,,A,V*3E
$GNRMC,083217.30,A,3600.81850,N,12919.17959,E,1.887,67.23,190620,,,A,V*3C
$GNRMC,083217.40,A,3600.81851,N,12919.17964,E,1.847,67.99,190620,,,A,V*39
$GNRMC,083217.50,A,3600.81852,N,12919.17970,E,1.770,69.73,190620,,,A,V*3F
$GNRMC,083217.60,A,3600.81852,N,12919.17974,E,1.660,73.57,190620,,,A,V*35
$GNRMC,083217.70,A,3600.81852,N,12919.17979,E,1.571,78.14,190620,,,A,V*36
$GNRMC,083217.80,A,3600.81851,N,12919.17983,E,1.516,85.20,190620,,,A,V*3B
$GNRMC,083217.90,A,3600.81851,N,12919.17988,E,1.524,86.30,190620,,,A,V*32
$GNRMC,083218.00,A,3600.81851,N,12919.17994,E,1.591,86.64,190620,,,A,V*36
$GNRMC,083218.10,A,3600.81850,N,12919.18000,E,1.620,90.44,190620,,,A,V*31
$GNRMC,083218.20,A,3600.81848,N,12919.18006,E,1.623,93.98,190620,,,A,V*3C
$GNRMC,083218.30,A,3600.81846,N,12919.18010,E,1.578,99.14,190620,,,A,V*37
$GNRMC,083218.40,A,3600.81844,N,12919.18016,E,1.621,104.53,190620,,,A,V*0D
$GNRMC,083218.50,A,3600.81840,N,12919.18019,E,1.592,112.60,190620,,,A,V*0B
$GNRMC,083218.60,A,3600.81836,N,12919.18020,E,1.484,121.93,190620,,,A,V*09
$GNRMC,083218.70,A,3600.81833,N,12919.18020,E,1.225,129.60,190620,,,A,V*04
$GNRMC,083218.80,A,3600.81830,N,12919.18019,E,1.119,139.50,190620,,,A,V*0C
$GNRMC,083218.90,A,3600.81827,N,12919.18018,E,0.948,148.45,190620,,,A,V*05
$GNRMC,083219.00,A,3600.81826,N,12919.18016,E,0.780,159.26,190620,,,A,V*0D
$GNRMC,083219.10,A,3600.81824,N,12919.18014,E,0.718,169.89,190620,,,A,V*0B
$GNRMC,083219.20,A,3600.81821,N,12919.18013,E,0.769,177.14,190620,,,A,V*07
$GNRMC,083219.30,A,3600.81818,N,12919.18012,E,0.775,183.09,190620,,,A,V*07
$GNRMC,083219.40,A,3600.81816,N,12919.18011,E,0.744,187.63,190620,,,A,V*07
$GNRMC,083219.50,A,3600.81815,N,12919.18010,E,0.695,190.14,190620,,,A,V*0F
$GNRMC,083219.60,A,3600.81813,N,12919.18009,E,0.678,192.87,190620,,,A,V*09
$GNRMC,083219.70,A,3600.81810,N,12919.18007,E,0.744,195.76,190620,,,A,V*02
$GNRMC,083219.80,A,3600.81808,N,12919.18007,E,0.753,196.26,190620,,,A,V*04
$GNRMC,083219.90,A,3600.81805,N,12919.18006,E,0.792,196.63,190620,,,A,V*05
$GNRMC,083220.00,A,3600.81802,N,12919.18004,E,0.843,199.47,190620,,,A,V*09
$GNRMC,083220.10,A,3600.81800,N,12919.18002,E,0.882,201.12,190620,,,A,V*03
$GNRMC,083220.20,A,3600.81796,N,12919.18000,E,0.990,204.28,190620,,,A,V*0C
$GNRMC,083220.30,A,3600.81794,N,12919.17998,E,0.953,207.87,190620,,,A,V*01
$GNRMC,083220.40,A,3600.81791,N,12919.17994,E,1.041,215.66,190620,,,A,V*08
$GNRMC,083220.50,A,3600.81789,N,12919.17989,E,1.137,222.92,190620,,,A,V*03
$GNRMC,083220.60,A,3600.81787,N,12919.17983,E,1.226,231.21,190620,,,A,V*0D
$GNRMC,083220.70,A,3600.81785,N,12919.17979,E,1.272,236.39,190620,,,A,V*04
$GNRMC,083220.80,A,3600.81783,N,12919.17974,E,1.361,237.73,190620,,,A,V*0C
$GNRMC,083220.90,A,3600.81780,N,12919.17969,E,1.411,236.86,190620,,,A,V*09
$GNRMC,083221.00,A,3600.81778,N,12919.17966,E,1.388,235.43,190620,,,A,V*04
$GNRMC,083221.10,A,3600.81776,N,12919.17961,E,1.384,238.15,190620,,,A,V*0E
$GNRMC,083221.20,A,3600.81775,N,12919.17957,E,1.335,243.27,190620,,,A,V*0C
$GNRMC,083221.30,A,3600.81773,N,12919.17952,E,1.382,243.69,190620,,,A,V*08
$GNRMC,083221.40,A,3600.81772,N,12919.17948,E,1.330,248.41,190620,,,A,V*0D
$GNRMC,083221.50,A,3600.81771,N,12919.17943,E,1.385,251.87,190620,,,A,V*08
$GNRMC,083221.60,A,3600.81772,N,12919.17938,E,1.363,259.42,190620,,,A,V*0D
$GNRMC,083221.70,A,3600.81773,N,12919.17933,E,1.381,268.18,190620,,,A,V*07
$GNRMC,083221.80,A,3600.81774,N,12919.17928,E,1.391,272.55,190620,,,A,V*06
$GNRMC,083221.90,A,3600.81775,N,12919.17924,E,1.368,278.44,190620,,,A,V*06
$GNRMC,083222.00,A,3600.81776,N,12919.17919,E,1.394,280.61,190620,,,A,V*02
$GNRMC,083222.10,A,3600.81776,N,12919.17914,E,1.397,279.54,190620,,,A,V*0D
$GNRMC,083222.20,A,3600.81776,N,12919.17909,E,1.418,277.35,190620,,,A,V*0B
$GNRMC,083222.30,A,3600.81775,N,12919.17904,E,1.436,271.87,190620,,,A,V*07
$GNRMC,083222.40,A,3600.81775,N,12919.17899,E,1.436,271.17,190620,,,A,V*0C
$GNRMC,083222.50,A,3600.81775,N,12919.17895,E,1.388,270.73,190620,,,A,V*00
$GNRMC,083222.60,A,3600.81774,N,12919.17889,E,1.385,268.79,190620,,,A,V*01
$GNRMC,083222.70,A,3600.81774,N,12919.17885,E,1.363,269.12,190620,,,A,V*08
$GNRMC,083222.80,A,3600.81775,N,12919.17880,E,1.397,272.13,190620,,,A,V*03
$GNRMC,083222.90,A,3600.81776,N,12919.17876,E,1.394,276.60,190620,,,A,V*0B
$GNRMC,083223.00,A,3600.81777,N,12919.17872,E,1.366,280.70,190620,,,A,V*03
$GNRMC,083223.10,A,3600.81778,N,12919.17868,E,1.307,282.95,190620,,,A,V*08
$GNRMC,083223.20,A,3600.81779,N,12919.17864,E,1.300,283.10,190620,,,A,V*0D
$GNRMC,083223.30,A,3600.81780,N,12919.17859,E,1.279,284.63,190620,,,A,V*08
$GNRMC,083223.40,A,3600.81780,N,12919.17854,E,1.351,282.47,190620,,,A,V*09
$GNRMC,083223.50,A,3600.81780,N,12919.17848,E,1.423,279.33,190620,,,A,V*00
$GNRMC,083223.60,A,3600.81781,N,12919.17843,E,1.493,280.01,190620,,,A,V*05
$GNRMC,083223.70,A,3600.81782,N,12919.17837,E,1.544,280.75,190620,,,A,V*0C
$GNRMC,083223.80,A,3600.81783,N,12919.17831,E,1.553,281.92,190620,,,A,V*0A
$GNRMC,083223.90,A,3600.81784,N,12919.17827,E,1.483,285.05,190620,,,A,V*0D
$GNRMC,083224.00,A,3600.81784,N,12919.17823,E,1.440,281.86,190620,,,A,V*07
$GNRMC,083224.10,A,3600.81785,N,12919.17819,E,1.362,282.29,190620,,,A,V*0F
$GNRMC,083224.20,A,3600.81786,N,12919.17815,E,1.336,285.25,190620,,,A,V*09
$GNRMC,083224.30,A,3600.81788,N,12919.17811,E,1.332,288.71,190620,,,A,V*0A
$GNRMC,083224.40,A,3600.81790,N,12919.17807,E,1.311,291.89,190620,,,A,V*0D
$GNRMC,083224.50,A,3600.81792,N,12919.17804,E,1.262,297.10,190620,,,A,V*0E
$GNRMC,083224.60,A,3600.81794,N,12919.17801,E,1.234,299.95,190620,,,A,V*0E
$GNRMC,083224.70,A,3600.81796,N,12919.17798,E,1.205,301.50,190620,,,A,V*09
$GNRMC,083224.80,A,3600.81798,N,12919.17796,E,1.159,304.07,190620,,,A,V*0B
$GNRMC,083224.90,A,3600.81799,N,12919.17793,E,1.125,304.67,190620,,,A,V*03
$GNRMC,083225.00,A,3600.81801,N,12919.17790,E,1.146,304.54,190620,,,A,V*03
$GNRMC,083225.10,A,3600.81803,N,12919.17787,E,1.121,305.56,190620,,,A,V*04
$GNRMC,083225.20,A,3600.81804,N,12919.17783,E,1.139,305.21,190620,,,A,V*0D
$GNRMC,083225.30,A,3600.81806,N,12919.17779,E,1.246,302.81,190620,,,A,V*0D
$GNRMC,083225.40,A,3600.81807,N,12919.17775,E,1.193,299.77,190620,,,A,V*06
$GNRMC,083225.50,A,3600.81808,N,12919.17774,E,1.037,300.21,190620,,,A,V*04
$GNRMC,083225.60,A,3600.81810,N,12919.17773,E,0.862,306.87,190620,,,A,V*0A
$GNRMC,083225.70,A,3600.81811,N,12919.17774,E,0.662,314.43,190620,,,A,V*08
$GNRMC,083225.80,A,3600.81811,N,12919.17775,E,0.485,323.01,190620,,,A,V*0F
$GNRMC,083225.90,A,3600.81811,N,12919.17777,E,0.344,338.23,190620,,,A,V*0C
$GNRMC,083226.00,A,3600.81812,N,12919.17779,E,0.335,5.80,190620,,,A,V*09
$GNRMC,083226.10,A,3600.81813,N,12919.17780,E,0.402,25.31,190620,,,A,V*34
$GNRMC,083226.20,A,3600.81814,N,12919.17782,E,0.435,33.83,190620,,,A,V*38
$GNRMC,083226.30,A,3600.81816,N,12919.17783,E,0.513,31.94,190620,,,A,V*3B
$GNRMC,083226.40,A,3600.81818,N,12919.17783,E,0.578,24.87,190620,,,A,V*39
$GNRMC,083226.50,A,3600.81819,N,12919.17785,E,0.533,29.38,190620,,,A,V*39
$GNRMC,083226.60,A,3600.81819,N,12919.17787,E,0.470,36.95,190620,,,A,V*37
$GNRMC,083226.70,A,3600.81818,N,12919.17788,E,0.383,52.06,190620,,,A,V*3B
$GNRMC,083226.80,A,3600.81816,N,12919.17788,E,0.313,69.96,190620,,,A,V*32
$GNRMC,083226.90,A,3600.81817,N,12919.17787,E,0.165,,190620,,,A,V*10
$GNRMC,083227.00,A,3600.81818,N,12919.17784,E,0.222,25.66,190620,,,A,V*3D
$GNRMC,083227.10,A,3600.81820,N,12919.17782,E,0.394,335.94,190620,,,A,V*02
$GNRMC,083227.20,A,3600.81823,N,12919.17781,E,0.591,330.95,190620,,,A,V*06
$GNRMC,083227.30,A,3600.81825,N,12919.17781,E,0.621,336.69,190620,,,A,V*0C
$GNRMC,083227.40,A,3600.81825,N,12919.17781,E,0.473,340.86,190620,,,A,V*0E
$GNRMC,083227.50,A,3600.81824,N,12919.17781,E,0.280,338.33,190620,,,A,V*05
$GNRMC,083227.60,A,3600.81822,N,12919.17780,E,0.135,,190620,,,A,V*1A
$GNRMC,083227.70,A,3600.81820,N,12919.17779,E,0.188,,190620,,,A,V*19
$GNRMC,083227.80,A,3600.81819,N,12919.17778,E,0.260,258.89,190620,,,A,V*08
$GNRMC,083227.90,A,3600.81819,N,12919.17778,E,0.225,241.54,190620,,,A,V*00
$GNRMC,083228.00,A,3600.81820,N,12919.17779,E,0.094,,190620,,,A,V*1D
$GNRMC,083228.10,A,3600.81821,N,12919.17781,E,0.084,,190620,,,A,V*1B
$GNRMC,083228.20,A,3600.81822,N,12919.17783,E,0.209,334.92,190620,,,A,V*0F
$GNRMC,083228.30,A,3600.81824,N,12919.17784,E,0.287,11.87,190620,,,A,V*39
$GNRMC,083228.40,A,3600.81826,N,12919.17785,E,0.380,9.23,190620,,,A,V*0C
$GNRMC,083228.50,A,3600.81827,N,12919.17785,E,0.402,5.81,190620,,,A,V*05
$GNRMC,083228.60,A,3600.81828,N,12919.17790,E,0.486,32.57,190620,,,A,V*3E
$GNRMC,083228.70,A,3600.81824,N,12919.17793,E,0.538,70.33,190620,,,A,V*30
$GNRMC,083228.80,A,3600.81824,N,12919.17796,E,0.616,91.87,190620,,,A,V*35
$GNRMC,083228.90,A,3600.81824,N,12919.17798,E,0.632,95.58,190620,,,A,V*3A
$GNRMC,083229.00,A,3600.81825,N,12919.17799,E,0.515,87.84,190620,,,A,V*36
$GNRMC,083229.10,A,3600.81827,N,12919.17799,E,0.375,69.29,190620,,,A,V*32
$GNRMC,083229.20,A,3600.81828,N,12919.17798,E,0.344,52.78,190620,,,A,V*31
$GNRMC,083229.30,A,3600.81829,N,12919.17795,E,0.310,25.14,190620,,,A,V*37
$GNRMC,083229.40,A,3600.81830,N,12919.17790,E,0.569,332.55,190620,,,A,V*05
$GNRMC,083229.50,A,3600.81828,N,12919.17786,E,0.495,313.35,190620,,,A,V*0D
$GNRMC,083229.60,A,3600.81822,N,12919.17780,E,0.671,260.60,190620,,,A,V*0F
$GNRMC,083229.70,A,3600.81818,N,12919.17777,E,0.839,237.30,190620,,,A,V*0A
$GNRMC,083229.80,A,3600.81819,N,12919.17780,E,0.540,230.70,190620,,,A,V*0C
$GNRMC,083229.90,A,3600.81822,N,12919.17778,E,0.576,250.39,190620,,,A,V*0C
