$GNRMC,122452.70,A,3600.81519,N,12919.17566,E,0.087,,260620,,,A,V*1E
$GNRMC,122452.80,A,3600.81518,N,12919.17565,E,0.036,,260620,,,A,V*19
$GNRMC,122452.90,A,3600.81517,N,12919.17565,E,0.035,,260620,,,A,V*14
$GNRMC,122453.00,A,3600.81518,N,12919.17565,E,0.085,,260620,,,A,V*18
$GNRMC,122453.10,A,3600.81517,N,12919.17563,E,0.142,,260620,,,A,V*1A
$GNRMC,122453.20,A,3600.81517,N,12919.17565,E,0.013,,260620,,,A,V*1A
$GNRMC,122453.30,A,3600.81517,N,12919.17564,E,0.103,,260620,,,A,V*1A
$GNRMC,122453.40,A,3600.81516,N,12919.17563,E,0.162,,260620,,,A,V*1C
$GNRMC,122453.50,A,3600.81516,N,12919.17564,E,0.034,,260620,,,A,V*18
$GNRMC,122453.60,A,3600.81517,N,12919.17565,E,0.038,,260620,,,A,V*17
$GNRMC,122453.70,A,3600.81516,N,12919.17565,E,0.016,,260620,,,A,V*1B
$GNRMC,122453.80,A,3600.81516,N,12919.17565,E,0.025,,260620,,,A,V*14
$GNRMC,122453.90,A,3600.81518,N,12919.17565,E,0.155,,260620,,,A,V*1D
$GNRMC,122454.00,A,3600.81517,N,12919.17565,E,0.072,,260620,,,A,V*18
$GNRMC,122454.10,A,3600.81518,N,12919.17564,E,0.150,,260620,,,A,V*16
$GNRMC,122454.20,A,3600.81517,N,12919.17564,E,0.076,,260620,,,A,V*1F
$GNRMC,122454.30,A,3600.81517,N,12919.17565,E,0.043,,260620,,,A,V*19
$GNRMC,122454.40,A,3600.81517,N,12919.17564,E,0.066,,260620,,,A,V*18
$GNRMC,122454.50,A,3600.81516,N,12919.17564,E,0.045,,260620,,,A,V*19
$GNRMC,122454.60,A,3600.81514,N,12919.17566,E,0.154,,260620,,,A,V*1B
$GNRMC,122454.70,A,3600.81511,N,12919.17568,E,0.446,156.59,260620,,,A,V*07
$GNRMC,122454.80,A,3600.81505,N,12919.17572,E,0.892,149.69,260620,,,A,V*0E
$GNRMC,122454.90,A,3600.81497,N,12919.17580,E,1.641,145.56,260620,,,A,V*09
$GNRMC,122455.00,A,3600.81490,N,12919.17587,E,2.051,144.21,260620,,,A,V*04
$GNRMC,122455.10,A,3600.81483,N,12919.17597,E,2.463,140.00,260620,,,A,V*04
$GNRMC,122455.20,A,3600.81477,N,12919.17607,E,2.747,136.70,260620,,,A,V*05
$GNRMC,122455.30,A,3600.81472,N,12919.17619,E,2.976,132.00,260620,,,A,V*01
$GNRMC,122455.40,A,3600.81468,N,12919.17630,E,3.118,129.06,260620,,,A,V*0B
$GNRMC,122455.50,A,3600.81464,N,12919.17640,E,3.100,126.06,260620,,,A,V*07
$GNRMC,122455.60,A,3600.81460,N,12919.17649,E,3.021,124.29,260620,,,A,V*04
$GNRMC,122455.70,A,3600.81456,N,12919.17657,E,2.955,123.06,260620,,,A,V*0E
$GNRMC,122455.80,A,3600.81452,N,12919.17665,E,2.872,122.59,260620,,,A,V*0B
$GNRMC,122455.90,A,3600.81448,N,12919.17671,E,2.668,122.39,260620,,,A,V*07
$GNRMC,122456.00,A,3600.81443,N,12919.17676,E,2.551,124.89,260620,,,A,V*05
$GNRMC,122456.10,A,3600.81439,N,12919.17681,E,2.436,127.65,260620,,,A,V*00
$GNRMC,122456.20,A,3600.81433,N,12919.17684,E,2.377,133.26,260620,,,A,V*0C
$GNRMC,122456.30,A,3600.81428,N,12919.17688,E,2.279,136.27,260620,,,A,V*00
$GNRMC,122456.40,A,3600.81424,N,12919.17691,E,2.173,138.40,260620,,,A,V*05
$GNRMC,122456.50,A,3600.81420,N,12919.17694,E,2.055,140.72,260620,,,A,V*0E
$GNRMC,122456.60,A,3600.81416,N,12919.17697,E,1.943,142.46,260620,,,A,V*03
$GNRMC,122456.70,A,3600.81411,N,12919.17700,E,1.938,145.78,260620,,,A,V*0C
$GNRMC,122456.80,A,3600.81406,N,12919.17703,E,1.961,147.01,260620,,,A,V*06
$GNRMC,122456.90,A,3600.81401,N,12919.17708,E,2.052,147.05,260620,,,A,V*05
$GNRMC,122457.00,A,3600.81395,N,12919.17713,E,2.167,145.05,260620,,,A,V*08
$GNRMC,122457.10,A,3600.81391,N,12919.17719,E,2.109,141.73,260620,,,A,V*0A
$GNRMC,122457.20,A,3600.81387,N,12919.17723,E,2.028,139.27,260620,,,A,V*0B
$GNRMC,122457.30,A,3600.81383,N,12919.17728,E,2.042,138.40,260620,,,A,V*09
$GNRMC,122457.40,A,3600.81379,N,12919.17733,E,2.046,137.32,260620,,,A,V*0F
$GNRMC,122457.50,A,3600.81376,N,12919.17737,E,2.014,137.59,260620,,,A,V*0F
$GNRMC,122457.60,A,3600.81372,N,12919.17741,E,1.895,136.90,260620,,,A,V*0F
$GNRMC,122457.70,A,3600.81369,N,12919.17744,E,1.806,137.54,260620,,,A,V*02
$GNRMC,122457.80,A,3600.81365,N,12919.17746,E,1.726,141.56,260620,,,A,V*0D
$GNRMC,122457.90,A,3600.81361,N,12919.17749,E,1.730,145.36,260620,,,A,V*02
$GNRMC,122458.00,A,3600.81356,N,12919.17752,E,1.809,147.23,260620,,,A,V*09
$GNRMC,122458.10,A,3600.81351,N,12919.17755,E,1.879,148.48,260620,,,A,V*0D
$GNRMC,122458.20,A,3600.81346,N,12919.17758,E,1.914,149.12,260620,,,A,V*01
$GNRMC,122458.30,A,3600.81342,N,12919.17761,E,1.868,149.56,260620,,,A,V*04
$GNRMC,122458.40,A,3600.81337,N,12919.17764,E,1.866,151.08,260620,,,A,V*08
$GNRMC,122458.50,A,3600.81332,N,12919.17765,E,1.856,154.02,260620,,,A,V*01
$GNRMC,122458.60,A,3600.81328,N,12919.17768,E,1.793,154.26,260620,,,A,V*04
$GNRMC,122458.70,A,3600.81324,N,12919.17770,E,1.765,154.36,260620,,,A,V*08
$GNRMC,122458.80,A,3600.81320,N,12919.17771,E,1.688,156.38,260620,,,A,V*0C
$GNRMC,122458.90,A,3600.81317,N,12919.17773,E,1.562,157.38,260620,,,A,V*0D
$GNRMC,122459.00,A,3600.81314,N,12919.17773,E,1.446,161.96,260620,,,A,V*00
$GNRMC,122459.10,A,3600.81310,N,12919.17773,E,1.427,164.53,260620,,,A,V*0E
$GNRMC,122459.20,A,3600.81306,N,12919.17774,E,1.465,165.73,260620,,,A,V*08
$GNRMC,122459.30,A,3600.81303,N,12919.17773,E,1.382,171.62,260620,,,A,V*00
$GNRMC,122459.40,A,3600.81299,N,12919.17774,E,1.362,172.47,260620,,,A,V*08
$GNRMC,122459.50,A,3600.81295,N,12919.17774,E,1.398,172.35,260620,,,A,V*05
$GNRMC,122459.60,A,3600.81292,N,12919.17774,E,1.254,174.93,260620,,,A,V*0A
$GNRMC,122459.70,A,3600.81289,N,12919.17773,E,1.243,177.52,260620,,,A,V*0E
$GNRMC,122459.90,A,3600.81284,N,12919.17770,E,1.131,188.31,260620,,,A,V*0D
$GNRMC,122500.00,A,3600.81280,N,12919.17768,E,1.204,190.50,260620,,,A,V*0F
$GNRMC,122500.10,A,3600.81277,N,12919.17767,E,1.188,191.87,260620,,,A,V*05
$GNRMC,122500.20,A,3600.81274,N,12919.17767,E,1.138,190.57,260620,,,A,V*02
$GNRMC,122500.30,A,3600.81271,N,12919.17766,E,1.074,191.07,260620,,,A,V*0A
$GNRMC,122500.40,A,3600.81270,N,12919.17765,E,0.994,192.83,260620,,,A,V*06
$GNRMC,122500.50,A,3600.81267,N,12919.17763,E,0.982,196.82,260620,,,A,V*05
$GNRMC,122500.60,A,3600.81265,N,12919.17761,E,0.945,201.93,260620,,,A,V*00
$GNRMC,122500.70,A,3600.81263,N,12919.17760,E,1.003,203.17,260620,,,A,V*02
$GNRMC,122500.80,A,3600.81260,N,12919.17757,E,1.086,207.25,260620,,,A,V*02
$GNRMC,122500.90,A,3600.81257,N,12919.17754,E,1.160,209.55,260620,,,A,V*04
$GNRMC,122501.00,A,3600.81253,N,12919.17751,E,1.235,210.66,260620,,,A,V*06
$GNRMC,122501.10,A,3600.81250,N,12919.17748,E,1.222,212.34,260620,,,A,V*0F
$GNRMC,122501.20,A,3600.81247,N,12919.17745,E,1.254,215.73,260620,,,A,V*02
$GNRMC,122501.30,A,3600.81245,N,12919.17742,E,1.223,218.88,260620,,,A,V*0F
$GNRMC,122501.40,A,3600.81243,N,12919.17738,E,1.194,222.17,260620,,,A,V*03
$GNRMC,122501.50,A,3600.81241,N,12919.17735,E,1.228,225.31,260620,,,A,V*0A
$GNRMC,122501.60,A,3600.81239,N,12919.17731,E,1.238,226.82,260620,,,A,V*08
$GNRMC,122501.70,A,3600.81235,N,12919.17728,E,1.268,223.67,260620,,,A,V*06
$GNRMC,122501.80,A,3600.81231,N,12919.17724,E,1.405,220.36,260620,,,A,V*0B
$GNRMC,122501.90,A,3600.81228,N,12919.17721,E,1.413,219.89,260620,,,A,V*0E
$GNRMC,122502.00,A,3600.81225,N,12919.17719,E,1.334,218.11,260620,,,A,V*00
$GNRMC,122502.10,A,3600.81223,N,12919.17717,E,1.254,219.11,260620,,,A,V*0F
$GNRMC,122502.20,A,3600.81220,N,12919.17713,E,1.276,220.71,260620,,,A,V*07
$GNRMC,122502.30,A,3600.81217,N,12919.17710,E,1.291,221.83,260620,,,A,V*04
$GNRMC,122502.40,A,3600.81214,N,12919.17707,E,1.327,222.08,260620,,,A,V*0A
$GNRMC,122502.50,A,3600.81211,N,12919.17703,E,1.373,220.09,260620,,,A,V*08
$GNRMC,122502.60,A,3600.81207,N,12919.17701,E,1.414,217.67,260620,,,A,V*04
$GNRMC,122502.70,A,3600.81204,N,12919.17699,E,1.350,215.09,260620,,,A,V*0B
$GNRMC,122502.80,A,3600.81202,N,12919.17696,E,1.285,216.25,260620,,,A,V*09
$GNRMC,122502.90,A,3600.81199,N,12919.17693,E,1.276,216.23,260620,,,A,V*06
$GNRMC,122503.00,A,3600.81196,N,12919.17691,E,1.251,216.39,260620,,,A,V*0D
$GNRMC,122503.10,A,3600.81193,N,12919.17688,E,1.280,215.97,260620,,,A,V*0A
$GNRMC,122503.20,A,3600.81191,N,12919.17686,E,1.204,214.38,260620,,,A,V*0D
$GNRMC,122503.30,A,3600.81188,N,12919.17684,E,1.150,214.93,260620,,,A,V*05
$GNRMC,122503.40,A,3600.81186,N,12919.17681,E,1.188,217.37,260620,,,A,V*01
$GNRMC,122503.50,A,3600.81183,N,12919.17677,E,1.256,221.32,260620,,,A,V*0C
$GNRMC,122503.60,A,3600.81181,N,12919.17673,E,1.363,225.59,260620,,,A,V*07
$GNRMC,122503.70,A,3600.81178,N,12919.17667,E,1.519,229.57,260620,,,A,V*0C
$GNRMC,122503.80,A,3600.81175,N,12919.17661,E,1.583,232.77,260620,,,A,V*03
$GNRMC,122503.90,A,3600.81172,N,12919.17655,E,1.735,234.23,260620,,,A,V*0A
$GNRMC,122504.00,A,3600.81168,N,12919.17649,E,1.853,234.42,260620,,,A,V*0A
$GNRMC,122504.10,A,3600.81165,N,12919.17643,E,1.890,235.87,260620,,,A,V*0B
$GNRMC,122504.20,A,3600.81162,N,12919.17636,E,2.012,235.93,260620,,,A,V*09
$GNRMC,122504.30,A,3600.81158,N,12919.17630,E,2.115,234.24,260620,,,A,V*0C
$GNRMC,122504.40,A,3600.81153,N,12919.17623,E,2.198,233.51,260620,,,A,V*02
$GNRMC,122504.50,A,3600.81149,N,12919.17616,E,2.206,233.59,260620,,,A,V*02
$GNRMC,122504.60,A,3600.81146,N,12919.17610,E,2.227,234.31,260620,,,A,V*02
$GNRMC,122504.70,A,3600.81142,N,12919.17603,E,2.250,235.14,260620,,,A,V*03
$GNRMC,122504.80,A,3600.81138,N,12919.17596,E,2.337,234.74,260620,,,A,V*09
$GNRMC,122504.90,A,3600.81134,N,12919.17588,E,2.454,234.75,260620,,,A,V*08
$GNRMC,122505.00,A,3600.81129,N,12919.17581,E,2.462,234.16,260620,,,A,V*05
$GNRMC,122505.10,A,3600.81125,N,12919.17574,E,2.481,233.11,260620,,,A,V*0F
$GNRMC,122505.20,A,3600.81120,N,12919.17568,E,2.513,230.59,260620,,,A,V*01
$GNRMC,122505.30,A,3600.81115,N,12919.17561,E,2.554,229.65,260620,,,A,V*0B
$GNRMC,122505.40,A,3600.81109,N,12919.17555,E,2.578,226.65,260620,,,A,V*07
$GNRMC,122505.50,A,3600.81104,N,12919.17549,E,2.585,225.08,260620,,,A,V*0C
$GNRMC,122505.60,A,3600.81098,N,12919.17543,E,2.572,224.41,260620,,,A,V*05
$GNRMC,122505.70,A,3600.81093,N,12919.17537,E,2.507,224.28,260620,,,A,V*01
$GNRMC,122505.80,A,3600.81089,N,12919.17531,E,2.544,224.89,260620,,,A,V*0F
$GNRMC,122505.90,A,3600.81083,N,12919.17524,E,2.570,224.56,260620,,,A,V*05
$GNRMC,122506.00,A,3600.81078,N,12919.17517,E,2.611,225.97,260620,,,A,V*03
$GNRMC,122506.10,A,3600.81074,N,12919.17510,E,2.593,227.57,260620,,,A,V*0E
$GNRMC,122506.20,A,3600.81068,N,12919.17504,E,2.576,226.49,260620,,,A,V*00
$GNRMC,122506.30,A,3600.81064,N,12919.17498,E,2.499,226.81,260620,,,A,V*0D
$GNRMC,122506.40,A,3600.81059,N,12919.17491,E,2.530,226.83,260620,,,A,V*0D
$GNRMC,122506.50,A,3600.81054,N,12919.17485,E,2.565,225.76,260620,,,A,V*0D
$GNRMC,122506.60,A,3600.81048,N,12919.17478,E,2.614,225.64,260620,,,A,V*07
$GNRMC,122506.70,A,3600.81043,N,12919.17472,E,2.569,225.66,260620,,,A,V*0C
$GNRMC,122506.80,A,3600.81039,N,12919.17466,E,2.501,226.89,260620,,,A,V*07
$GNRMC,122506.90,A,3600.81035,N,12919.17459,E,2.481,228.37,260620,,,A,V*04
$GNRMC,122507.00,A,3600.81030,N,12919.17453,E,2.539,228.35,260620,,,A,V*03
$GNRMC,122507.10,A,3600.81026,N,12919.17445,E,2.588,229.83,260620,,,A,V*04
$GNRMC,122507.20,A,3600.81021,N,12919.17437,E,2.627,232.26,260620,,,A,V*06
$GNRMC,122507.30,A,3600.81017,N,12919.17429,E,2.622,233.25,260620,,,A,V*0A
$GNRMC,122507.40,A,3600.81013,N,12919.17423,E,2.519,233.13,260620,,,A,V*0D
$GNRMC,122507.50,A,3600.81009,N,12919.17416,E,2.528,233.36,260620,,,A,V*04
$GNRMC,122507.60,A,3600.81005,N,12919.17408,E,2.573,232.89,260620,,,A,V*0F
$GNRMC,122507.70,A,3600.81000,N,12919.17402,E,2.548,230.95,260620,,,A,V*06
$GNRMC,122507.80,A,3600.80995,N,12919.17396,E,2.555,229.54,260620,,,A,V*0E
$GNRMC,122507.90,A,3600.80990,N,12919.17389,E,2.546,229.51,260620,,,A,V*03
$GNRMC,122508.00,A,3600.80986,N,12919.17382,E,2.467,231.27,260620,,,A,V*03
$GNRMC,122508.10,A,3600.80981,N,12919.17374,E,2.623,230.13,260620,,,A,V*08
$GNRMC,122508.20,A,3600.80976,N,12919.17367,E,2.648,230.51,260620,,,A,V*0A
$GNRMC,122508.30,A,3600.80971,N,12919.17359,E,2.687,232.26,260620,,,A,V*00
$GNRMC,122508.40,A,3600.80966,N,12919.17351,E,2.673,231.47,260620,,,A,V*06
$GNRMC,122508.50,A,3600.80961,N,12919.17345,E,2.653,230.64,260620,,,A,V*07
$GNRMC,122508.60,A,3600.80957,N,12919.17337,E,2.647,231.91,260620,,,A,V*0A
$GNRMC,122508.70,A,3600.80952,N,12919.17330,E,2.633,231.45,260620,,,A,V*03
$GNRMC,122508.80,A,3600.80948,N,12919.17323,E,2.604,230.82,260620,,,A,V*0B
$GNRMC,122508.90,A,3600.80943,N,12919.17317,E,2.577,230.14,260620,,,A,V*0E
$GNRMC,122509.00,A,3600.80939,N,12919.17311,E,2.494,229.69,260620,,,A,V*03
$GNRMC,122509.10,A,3600.80935,N,12919.17305,E,2.452,230.22,260620,,,A,V*06
$GNRMC,122509.20,A,3600.80931,N,12919.17298,E,2.465,231.14,260620,,,A,V*04
$GNRMC,122509.30,A,3600.80926,N,12919.17291,E,2.552,230.08,260620,,,A,V*03
$GNRMC,122509.40,A,3600.80921,N,12919.17283,E,2.611,230.63,260620,,,A,V*09
$GNRMC,122509.50,A,3600.80917,N,12919.17276,E,2.561,231.83,260620,,,A,V*0C
$GNRMC,122509.60,A,3600.80912,N,12919.17269,E,2.581,230.80,260620,,,A,V*08
$GNRMC,122509.70,A,3600.80908,N,12919.17263,E,2.527,230.55,260620,,,A,V*0C
$GNRMC,122509.80,A,3600.80903,N,12919.17256,E,2.569,229.46,260620,,,A,V*0E
$GNRMC,122509.90,A,3600.80898,N,12919.17248,E,2.670,229.34,260620,,,A,V*0D
$GNRMC,122510.00,A,3600.80893,N,12919.17241,E,2.641,228.71,260620,,,A,V*0C
$GNRMC,122510.10,A,3600.80888,N,12919.17235,E,2.604,229.02,260620,,,A,V*00
$GNRMC,122510.20,A,3600.80884,N,12919.17227,E,2.585,231.72,260620,,,A,V*08
$GNRMC,122510.30,A,3600.80880,N,12919.17219,E,2.641,231.96,260620,,,A,V*01
$GNRMC,122510.40,A,3600.80874,N,12919.17213,E,2.709,229.14,260620,,,A,V*09
$GNRMC,122510.50,A,3600.80869,N,12919.17205,E,2.720,229.57,260620,,,A,V*0F
$GNRMC,122510.60,A,3600.80865,N,12919.17197,E,2.704,231.67,260620,,,A,V*04
$GNRMC,122510.70,A,3600.80860,N,12919.17190,E,2.693,231.64,260620,,,A,V*0B
$GNRMC,122510.80,A,3600.80855,N,12919.17184,E,2.621,230.00,260620,,,A,V*0D
$GNRMC,122510.90,A,3600.80850,N,12919.17176,E,2.700,228.84,260620,,,A,V*03
$GNRMC,122511.00,A,3600.80844,N,12919.17169,E,2.753,228.32,260620,,,A,V*0B
$GNRMC,122511.10,A,3600.80839,N,12919.17162,E,2.765,228.47,260620,,,A,V*0C
$GNRMC,122511.20,A,3600.80835,N,12919.17155,E,2.678,230.38,260620,,,A,V*0B
$GNRMC,122511.30,A,3600.80831,N,12919.17148,E,2.612,232.28,260620,,,A,V*0D
$GNRMC,122511.40,A,3600.80827,N,12919.17140,E,2.626,232.54,260620,,,A,V*09
$GNRMC,122511.50,A,3600.80822,N,12919.17133,E,2.676,231.06,260620,,,A,V*08
$GNRMC,122511.60,A,3600.80817,N,12919.17125,E,2.719,231.11,260620,,,A,V*04
$GNRMC,122511.70,A,3600.80812,N,12919.17117,E,2.747,231.52,260620,,,A,V*0D
$GNRMC,122511.80,A,3600.80806,N,12919.17110,E,2.742,230.11,260620,,,A,V*03
$GNRMC,122511.90,A,3600.80801,N,12919.17104,E,2.676,228.31,260620,,,A,V*0D
$GNRMC,122512.00,A,3600.80796,N,12919.17098,E,2.696,227.01,260620,,,A,V*00
$GNRMC,122512.10,A,3600.80790,N,12919.17091,E,2.737,226.34,260620,,,A,V*03
$GNRMC,122512.20,A,3600.80785,N,12919.17084,E,2.712,226.61,260620,,,A,V*07
$GNRMC,122512.30,A,3600.80780,N,12919.17077,E,2.687,226.42,260620,,,A,V*03
$GNRMC,122512.40,A,3600.80775,N,12919.17071,E,2.618,226.30,260620,,,A,V*0B
$GNRMC,122512.50,A,3600.80770,N,12919.17065,E,2.613,226.54,260620,,,A,V*03
$GNRMC,122512.60,A,3600.80765,N,12919.17058,E,2.688,226.02,260620,,,A,V*0B
$GNRMC,122512.70,A,3600.80759,N,12919.17050,E,2.752,226.70,260620,,,A,V*0E
$GNRMC,122512.80,A,3600.80754,N,12919.17042,E,2.767,229.30,260620,,,A,V*02
$GNRMC,122512.90,A,3600.80750,N,12919.17035,E,2.713,229.60,260620,,,A,V*01
$GNRMC,122513.00,A,3600.80745,N,12919.17029,E,2.650,229.37,260620,,,A,V*04
$GNRMC,122513.10,A,3600.80740,N,12919.17021,E,2.680,229.32,260620,,,A,V*00
$GNRMC,122513.20,A,3600.80735,N,12919.17013,E,2.761,229.10,260620,,,A,V*0E
$GNRMC,122513.30,A,3600.80730,N,12919.17005,E,2.792,229.82,260620,,,A,V*0A
$GNRMC,122513.40,A,3600.80725,N,12919.16998,E,2.755,231.45,260620,,,A,V*0C
$GNRMC,122513.50,A,3600.80721,N,12919.16991,E,2.692,233.01,260620,,,A,V*08
$GNRMC,122513.60,A,3600.80717,N,12919.16983,E,2.691,233.79,260620,,,A,V*01
$GNRMC,122513.70,A,3600.80712,N,12919.16974,E,2.785,233.31,260620,,,A,V*05
$GNRMC,122513.80,A,3600.80707,N,12919.16966,E,2.810,233.40,260620,,,A,V*08
$GNRMC,122513.90,A,3600.80703,N,12919.16958,E,2.800,234.94,260620,,,A,V*0F
$GNRMC,122514.00,A,3600.80699,N,12919.16951,E,2.742,234.94,260620,,,A,V*03
$GNRMC,122514.10,A,3600.80694,N,12919.16944,E,2.679,233.62,260620,,,A,V*0C
$GNRMC,122514.20,A,3600.80690,N,12919.16937,E,2.705,232.55,260620,,,A,V*00
$GNRMC,122514.30,A,3600.80684,N,12919.16929,E,2.788,231.62,260620,,,A,V*09
$GNRMC,122514.40,A,3600.80679,N,12919.16921,E,2.775,231.40,260620,,,A,V*06
$GNRMC,122514.50,A,3600.80674,N,12919.16914,E,2.762,231.47,260620,,,A,V*0D
$GNRMC,122514.60,A,3600.80670,N,12919.16907,E,2.708,231.97,260620,,,A,V*09
$GNRMC,122514.70,A,3600.80665,N,12919.16899,E,2.742,232.04,260620,,,A,V*0D
$GNRMC,122514.80,A,3600.80660,N,12919.16892,E,2.804,229.82,260620,,,A,V*05
$GNRMC,122514.90,A,3600.80654,N,12919.16884,E,2.831,228.54,260620,,,A,V*08
$GNRMC,122515.00,A,3600.80650,N,12919.16877,E,2.762,229.65,260620,,,A,V*02
$GNRMC,122515.10,A,3600.80644,N,12919.16870,E,2.820,228.74,260620,,,A,V*09
$GNRMC,122515.20,A,3600.80639,N,12919.16863,E,2.722,228.99,260620,,,A,V*0C
$GNRMC,122515.30,A,3600.80634,N,12919.16856,E,2.757,227.68,260620,,,A,V*05
$GNRMC,122515.40,A,3600.80629,N,12919.16849,E,2.786,227.41,260620,,,A,V*07
$GNRMC,122515.50,A,3600.80623,N,12919.16841,E,2.800,228.04,260620,,,A,V*0B
$GNRMC,122515.60,A,3600.80618,N,12919.16835,E,2.751,227.72,260620,,,A,V*06
$GNRMC,122515.70,A,3600.80614,N,12919.16828,E,2.654,229.91,260620,,,A,V*00
$GNRMC,122515.80,A,3600.80610,N,12919.16821,E,2.631,230.72,260620,,,A,V*04
$GNRMC,122515.90,A,3600.80605,N,12919.16813,E,2.722,229.84,260620,,,A,V*02
$GNRMC,122516.00,A,3600.80600,N,12919.16805,E,2.739,230.88,260620,,,A,V*04
$GNRMC,122516.10,A,3600.80595,N,12919.16797,E,2.780,232.23,260620,,,A,V*0F
$GNRMC,122516.20,A,3600.80590,N,12919.16789,E,2.807,231.47,260620,,,A,V*07
$GNRMC,122516.30,A,3600.80586,N,12919.16783,E,2.718,231.76,260620,,,A,V*08
$GNRMC,122516.40,A,3600.80581,N,12919.16775,E,2.756,230.66,260620,,,A,V*0B
$GNRMC,122516.50,A,3600.80575,N,12919.16767,E,2.830,230.22,260620,,,A,V*0D
$GNRMC,122516.60,A,3600.80570,N,12919.16759,E,2.821,230.18,260620,,,A,V*0F
$GNRMC,122516.70,A,3600.80565,N,12919.16752,E,2.800,230.78,260620,,,A,V*04
$GNRMC,122516.80,A,3600.80561,N,12919.16744,E,2.747,232.08,260620,,,A,V*01
$GNRMC,122516.90,A,3600.80556,N,12919.16737,E,2.743,231.89,260620,,,A,V*0E
$GNRMC,122517.00,A,3600.80551,N,12919.16730,E,2.799,229.93,260620,,,A,V*03
$GNRMC,122517.10,A,3600.80546,N,12919.16722,E,2.841,230.05,260620,,,A,V*0A
$GNRMC,122517.20,A,3600.80541,N,12919.16713,E,2.850,231.11,260620,,,A,V*08
$GNRMC,122517.30,A,3600.80535,N,12919.16706,E,2.851,230.41,260620,,,A,V*0B
$GNRMC,122517.40,A,3600.80530,N,12919.16700,E,2.741,229.14,260620,,,A,V*09
$GNRMC,122517.50,A,3600.80525,N,12919.16693,E,2.790,228.15,260620,,,A,V*0B
$GNRMC,122517.60,A,3600.80519,N,12919.16685,E,2.836,227.39,260620,,,A,V*02
$GNRMC,122517.70,A,3600.80514,N,12919.16677,E,2.840,228.28,260620,,,A,V*0D
$GNRMC,122517.80,A,3600.80509,N,12919.16670,E,2.772,229.37,260620,,,A,V*08
$GNRMC,122517.90,A,3600.80505,N,12919.16663,E,2.747,231.08,260620,,,A,V*04
$GNRMC,122518.00,A,3600.80500,N,12919.16655,E,2.760,230.99,260620,,,A,V*0E
$GNRMC,122518.10,A,3600.80495,N,12919.16647,E,2.819,230.36,260620,,,A,V*05
$GNRMC,122518.20,A,3600.80490,N,12919.16640,E,2.806,230.95,260620,,,A,V*03
$GNRMC,122518.30,A,3600.80486,N,12919.16632,E,2.798,231.73,260620,,,A,V*01
$GNRMC,122518.40,A,3600.80481,N,12919.16625,E,2.784,231.00,260620,,,A,V*0E
$GNRMC,122518.50,A,3600.80476,N,12919.16618,E,2.694,231.00,260620,,,A,V*09
$GNRMC,122518.60,A,3600.80472,N,12919.16611,E,2.713,230.72,260620,,,A,V*0D
$GNRMC,122518.70,A,3600.80467,N,12919.16603,E,2.744,230.95,260620,,,A,V*00
$GNRMC,122518.80,A,3600.80462,N,12919.16596,E,2.722,232.01,260620,,,A,V*0A
$GNRMC,122518.90,A,3600.80458,N,12919.16588,E,2.664,232.96,260620,,,A,V*00
$GNRMC,122519.00,A,3600.80455,N,12919.16581,E,2.605,234.58,260620,,,A,V*0F
$GNRMC,122519.10,A,3600.80450,N,12919.16574,E,2.598,234.11,260620,,,A,V*0B
$GNRMC,122519.20,A,3600.80446,N,12919.16567,E,2.647,232.32,260620,,,A,V*0B
$GNRMC,122519.30,A,3600.80441,N,12919.16559,E,2.697,232.30,260620,,,A,V*0F
$GNRMC,122519.40,A,3600.80436,N,12919.16551,E,2.718,231.99,260620,,,A,V*06
$GNRMC,122519.50,A,3600.80431,N,12919.16543,E,2.738,232.06,260620,,,A,V*04
$GNRMC,122519.60,A,3600.80426,N,12919.16537,E,2.644,230.50,260620,,,A,V*09
$GNRMC,122519.70,A,3600.80421,N,12919.16530,E,2.641,229.74,260620,,,A,V*03
$GNRMC,122519.80,A,3600.80417,N,12919.16523,E,2.691,230.42,260620,,,A,V*0B
$GNRMC,122519.90,A,3600.80411,N,12919.16515,E,2.718,230.11,260620,,,A,V*0F
$GNRMC,122520.00,A,3600.80407,N,12919.16509,E,2.624,230.96,260620,,,A,V*07
$GNRMC,122520.10,A,3600.80404,N,12919.16501,E,2.540,233.75,260620,,,A,V*02
$GNRMC,122520.20,A,3600.80400,N,12919.16495,E,2.518,233.39,260620,,,A,V*0C
$GNRMC,122520.30,A,3600.80395,N,12919.16487,E,2.583,231.81,260620,,,A,V*06
$GNRMC,122520.40,A,3600.80391,N,12919.16480,E,2.623,232.60,260620,,,A,V*07
$GNRMC,122520.50,A,3600.80387,N,12919.16472,E,2.618,233.53,260620,,,A,V*05
$GNRMC,122520.60,A,3600.80382,N,12919.16464,E,2.641,233.99,260620,,,A,V*0E
$GNRMC,122520.70,A,3600.80378,N,12919.16458,E,2.555,232.02,260620,,,A,V*00
$GNRMC,122520.80,A,3600.80373,N,12919.16452,E,2.527,231.35,260620,,,A,V*0C
$GNRMC,122520.90,A,3600.80369,N,12919.16444,E,2.592,230.61,260620,,,A,V*0F
$GNRMC,122521.00,A,3600.80364,N,12919.16437,E,2.630,230.83,260620,,,A,V*09
$GNRMC,122521.10,A,3600.80359,N,12919.16430,E,2.611,231.45,260620,,,A,V*09
$GNRMC,122521.20,A,3600.80355,N,12919.16423,E,2.566,232.93,260620,,,A,V*0F
$GNRMC,122521.30,A,3600.80351,N,12919.16415,E,2.551,233.57,260620,,,A,V*02
$GNRMC,122521.40,A,3600.80347,N,12919.16408,E,2.591,232.51,260620,,,A,V*05
$GNRMC,122521.50,A,3600.80342,N,12919.16400,E,2.666,232.22,260620,,,A,V*06
$GNRMC,122521.60,A,3600.80337,N,12919.16392,E,2.700,233.45,260620,,,A,V*0A
$GNRMC,122521.70,A,3600.80333,N,12919.16384,E,2.693,233.86,260620,,,A,V*0C
$GNRMC,122521.80,A,3600.80328,N,12919.16377,E,2.675,233.46,260620,,,A,V*01
$GNRMC,122521.90,A,3600.80324,N,12919.16370,E,2.646,232.89,260620,,,A,V*09
$GNRMC,122522.00,A,3600.80319,N,12919.16362,E,2.737,231.92,260620,,,A,V*00
$GNRMC,122522.10,A,3600.80314,N,12919.16354,E,2.781,231.71,260620,,,A,V*09
$GNRMC,122522.20,A,3600.80309,N,12919.16347,E,2.768,231.62,260620,,,A,V*01
$GNRMC,122522.30,A,3600.80305,N,12919.16340,E,2.688,232.95,260620,,,A,V*0F
$GNRMC,122522.40,A,3600.80301,N,12919.16332,E,2.664,233.36,260620,,,A,V*03
$GNRMC,122522.50,A,3600.80296,N,12919.16325,E,2.720,232.44,260620,,,A,V*0E
$GNRMC,122522.60,A,3600.80291,N,12919.16316,E,2.786,232.54,260620,,,A,V*07
$GNRMC,122522.70,A,3600.80286,N,12919.16308,E,2.826,233.72,260620,,,A,V*0F
$GNRMC,122522.80,A,3600.80282,N,12919.16300,E,2.797,234.66,260620,,,A,V*0B
$GNRMC,122522.90,A,3600.80277,N,12919.16292,E,2.766,233.59,260620,,,A,V*0F
$GNRMC,122523.00,A,3600.80272,N,12919.16285,E,2.756,232.33,260620,,,A,V*0A
$GNRMC,122523.10,A,3600.80267,N,12919.16278,E,2.779,231.55,260620,,,A,V*03
$GNRMC,122523.20,A,3600.80262,N,12919.16269,E,2.817,231.52,260620,,,A,V*05
$GNRMC,122523.30,A,3600.80257,N,12919.16262,E,2.787,231.94,260620,,,A,V*05
$GNRMC,122523.40,A,3600.80253,N,12919.16254,E,2.724,233.30,260620,,,A,V*06
$GNRMC,122523.50,A,3600.80249,N,12919.16247,E,2.701,234.39,260620,,,A,V*07
$GNRMC,122523.60,A,3600.80245,N,12919.16239,E,2.757,233.91,260620,,,A,V*07
$GNRMC,122523.70,A,3600.80240,N,12919.16230,E,2.798,233.97,260620,,,A,V*0F
$GNRMC,122523.80,A,3600.80236,N,12919.16222,E,2.819,235.03,260620,,,A,V*0F
$GNRMC,122523.90,A,3600.80231,N,12919.16214,E,2.803,235.67,260620,,,A,V*05
$GNRMC,122524.00,A,3600.80227,N,12919.16207,E,2.715,234.26,260620,,,A,V*02
$GNRMC,122524.10,A,3600.80223,N,12919.16200,E,2.681,233.78,260620,,,A,V*00
$GNRMC,122524.20,A,3600.80218,N,12919.16192,E,2.755,232.59,260620,,,A,V*09
$GNRMC,122524.30,A,3600.80212,N,12919.16184,E,2.768,231.59,260620,,,A,V*08
$GNRMC,122524.40,A,3600.80208,N,12919.16177,E,2.730,232.75,260620,,,A,V*08
$GNRMC,122524.50,A,3600.80204,N,12919.16170,E,2.676,233.21,260620,,,A,V*01
$GNRMC,122524.60,A,3600.80200,N,12919.16163,E,2.620,233.20,260620,,,A,V*06
$GNRMC,122524.70,A,3600.80195,N,12919.16155,E,2.652,232.48,260620,,,A,V*07
$GNRMC,122524.80,A,3600.80190,N,12919.16148,E,2.709,231.56,260620,,,A,V*02
$GNRMC,122524.90,A,3600.80185,N,12919.16140,E,2.743,232.23,260620,,,A,V*00
$GNRMC,122525.00,A,3600.80181,N,12919.16132,E,2.741,232.48,260620,,,A,V*06
$GNRMC,122525.10,A,3600.80176,N,12919.16126,E,2.646,232.04,260620,,,A,V*04
$GNRMC,122525.20,A,3600.80172,N,12919.16119,E,2.594,231.16,260620,,,A,V*03
$GNRMC,122525.30,A,3600.80167,N,12919.16111,E,2.654,230.71,260620,,,A,V*01
$GNRMC,122525.40,A,3600.80162,N,12919.16103,E,2.697,231.17,260620,,,A,V*0E
$GNRMC,122525.50,A,3600.80157,N,12919.16096,E,2.702,231.72,260620,,,A,V*0A
$GNRMC,122525.60,A,3600.80153,N,12919.16089,E,2.645,233.05,260620,,,A,V*03
$GNRMC,122525.70,A,3600.80150,N,12919.16081,E,2.585,234.58,260620,,,A,V*09
$GNRMC,122525.80,A,3600.80145,N,12919.16074,E,2.629,233.80,260620,,,A,V*0F
$GNRMC,122525.90,A,3600.80141,N,12919.16066,E,2.669,232.66,260620,,,A,V*04
$GNRMC,122526.00,A,3600.80136,N,12919.16058,E,2.710,232.70,260620,,,A,V*0B
$GNRMC,122526.10,A,3600.80132,N,12919.16050,E,2.683,233.83,260620,,,A,V*00
$GNRMC,122526.20,A,3600.80127,N,12919.16043,E,2.659,233.20,260620,,,A,V*0B
$GNRMC,122526.30,A,3600.80123,N,12919.16037,E,2.598,231.80,260620,,,A,V*0B
$GNRMC,122526.40,A,3600.80118,N,12919.16030,E,2.610,231.42,260620,,,A,V*0E
$GNRMC,122526.50,A,3600.80114,N,12919.16022,E,2.643,231.88,260620,,,A,V*00
$GNRMC,122526.60,A,3600.80109,N,12919.16015,E,2.640,231.77,260620,,,A,V*08
$GNRMC,122526.70,A,3600.80105,N,12919.16007,E,2.596,233.58,260620,,,A,V*01
$GNRMC,122526.80,A,3600.80101,N,12919.16000,E,2.530,234.38,260620,,,A,V*00
$GNRMC,122526.90,A,3600.80097,N,12919.15993,E,2.567,233.89,260620,,,A,V*00
$GNRMC,122527.00,A,3600.80092,N,12919.15985,E,2.648,232.50,260620,,,A,V*01
$GNRMC,122527.10,A,3600.80087,N,12919.15977,E,2.697,232.63,260620,,,A,V*0B
$GNRMC,122527.20,A,3600.80083,N,12919.15969,E,2.713,234.60,260620,,,A,V*0B
$GNRMC,122527.30,A,3600.80078,N,12919.15961,E,2.714,234.81,260620,,,A,V*0E
$GNRMC,122527.40,A,3600.80074,N,12919.15955,E,2.596,233.99,260620,,,A,V*04
$GNRMC,122527.50,A,3600.80069,N,12919.15947,E,2.628,233.20,260620,,,A,V*0E
$GNRMC,122527.60,A,3600.80065,N,12919.15939,E,2.690,232.91,260620,,,A,V*00
$GNRMC,122527.70,A,3600.80060,N,12919.15932,E,2.699,231.95,260620,,,A,V*01
$GNRMC,122527.80,A,3600.80056,N,12919.15924,E,2.659,234.17,260620,,,A,V*0F
$GNRMC,122527.90,A,3600.80053,N,12919.15916,E,2.618,236.93,260620,,,A,V*01
$GNRMC,122528.00,A,3600.80049,N,12919.15909,E,2.613,236.98,260620,,,A,V*02
$GNRMC,122528.10,A,3600.80044,N,12919.15900,E,2.690,236.05,260620,,,A,V*08
$GNRMC,122528.20,A,3600.80039,N,12919.15892,E,2.756,235.89,260620,,,A,V*07
$GNRMC,122528.30,A,3600.80035,N,12919.15884,E,2.741,236.45,260620,,,A,V*08
$GNRMC,122528.40,A,3600.80031,N,12919.15877,E,2.684,236.81,260620,,,A,V*07
$GNRMC,122528.50,A,3600.80027,N,12919.15870,E,2.611,235.67,260620,,,A,V*01
$GNRMC,122528.60,A,3600.80023,N,12919.15862,E,2.646,235.00,260620,,,A,V*06
$GNRMC,122528.70,A,3600.80018,N,12919.15855,E,2.658,234.13,260620,,,A,V*07
$GNRMC,122528.80,A,3600.80013,N,12919.15847,E,2.695,233.77,260620,,,A,V*04
$GNRMC,122528.90,A,3600.80009,N,12919.15840,E,2.629,234.78,260620,,,A,V*06
$GNRMC,122529.00,A,3600.80006,N,12919.15833,E,2.553,236.20,260620,,,A,V*04
$GNRMC,122529.10,A,3600.80002,N,12919.15825,E,2.563,236.10,260620,,,A,V*06
$GNRMC,122529.20,A,3600.79997,N,12919.15817,E,2.643,234.02,260620,,,A,V*07
$GNRMC,122529.30,A,3600.79992,N,12919.15810,E,2.678,233.12,260620,,,A,V*0A
$GNRMC,122529.40,A,3600.79987,N,12919.15802,E,2.710,232.99,260620,,,A,V*07
$GNRMC,122529.50,A,3600.79982,N,12919.15795,E,2.716,231.44,260620,,,A,V*07
$GNRMC,122529.60,A,3600.79977,N,12919.15789,E,2.635,230.06,260620,,,A,V*04
$GNRMC,122529.70,A,3600.79972,N,12919.15783,E,2.684,227.84,260620,,,A,V*0C
$GNRMC,122529.80,A,3600.79966,N,12919.15776,E,2.726,225.54,260620,,,A,V*0A
$GNRMC,122529.90,A,3600.79960,N,12919.15769,E,2.749,225.55,260620,,,A,V*0B
$GNRMC,122530.00,A,3600.79954,N,12919.15762,E,2.736,225.73,260620,,,A,V*0A
$GNRMC,122530.10,A,3600.79950,N,12919.15756,E,2.620,226.66,260620,,,A,V*09
$GNRMC,122530.20,A,3600.79945,N,12919.15750,E,2.621,226.88,260620,,,A,V*09
$GNRMC,122530.30,A,3600.79939,N,12919.15743,E,2.660,224.70,260620,,,A,V*01
$GNRMC,122530.40,A,3600.79933,N,12919.15737,E,2.721,223.99,260620,,,A,V*0B
$GNRMC,122530.50,A,3600.79928,N,12919.15729,E,2.737,225.52,260620,,,A,V*09
$GNRMC,122530.60,A,3600.79922,N,12919.15722,E,2.738,225.85,260620,,,A,V*0E
$GNRMC,122530.70,A,3600.79917,N,12919.15716,E,2.667,225.80,260620,,,A,V*00
$GNRMC,122530.80,A,3600.79911,N,12919.15710,E,2.690,224.67,260620,,,A,V*0F
$GNRMC,122530.90,A,3600.79905,N,12919.15703,E,2.751,223.99,260620,,,A,V*03
$GNRMC,122531.00,A,3600.79900,N,12919.15696,E,2.758,224.33,260620,,,A,V*0D
$GNRMC,122531.10,A,3600.79895,N,12919.15689,E,2.727,224.97,260620,,,A,V*09
$GNRMC,122531.20,A,3600.79890,N,12919.15683,E,2.624,226.38,260620,,,A,V*00
$GNRMC,122531.30,A,3600.79887,N,12919.15676,E,2.588,227.94,260620,,,A,V*0F
$GNRMC,122531.40,A,3600.79881,N,12919.15669,E,2.671,226.42,260620,,,A,V*0F
$GNRMC,122531.50,A,3600.79875,N,12919.15661,E,2.746,225.94,260620,,,A,V*00
$GNRMC,122531.60,A,3600.79870,N,12919.15653,E,2.776,227.75,260620,,,A,V*09
$GNRMC,122531.70,A,3600.79865,N,12919.15646,E,2.728,228.27,260620,,,A,V*0B
$GNRMC,122531.80,A,3600.79861,N,12919.15640,E,2.669,229.04,260620,,,A,V*02
$GNRMC,122531.90,A,3600.79856,N,12919.15633,E,2.651,228.44,260620,,,A,V*0D
$GNRMC,122532.00,A,3600.79851,N,12919.15625,E,2.710,228.27,260620,,,A,V*06
$GNRMC,122532.10,A,3600.79846,N,12919.15618,E,2.708,229.35,260620,,,A,V*04
$GNRMC,122532.20,A,3600.79842,N,12919.15611,E,2.669,230.56,260620,,,A,V*01
$GNRMC,122532.30,A,3600.79839,N,12919.15603,E,2.620,232.80,260620,,,A,V*0B
$GNRMC,122532.40,A,3600.79834,N,12919.15596,E,2.601,232.98,260620,,,A,V*04
$GNRMC,122532.50,A,3600.79830,N,12919.15588,E,2.653,231.95,260620,,,A,V*07
$GNRMC,122532.60,A,3600.79824,N,12919.15581,E,2.680,230.50,260620,,,A,V*0E
$GNRMC,122532.70,A,3600.79819,N,12919.15573,E,2.732,231.57,260620,,,A,V*02
$GNRMC,122532.80,A,3600.79815,N,12919.15565,E,2.735,231.78,260620,,,A,V*0C
$GNRMC,122532.90,A,3600.79811,N,12919.15558,E,2.677,232.73,260620,,,A,V*08
$GNRMC,122533.00,A,3600.79806,N,12919.15552,E,2.625,231.01,260620,,,A,V*0D
$GNRMC,122533.10,A,3600.79800,N,12919.15545,E,2.671,229.35,260620,,,A,V*03
$GNRMC,122533.20,A,3600.79795,N,12919.15538,E,2.706,229.22,260620,,,A,V*0E
$GNRMC,122533.30,A,3600.79790,N,12919.15531,E,2.671,230.33,260620,,,A,V*0A
$GNRMC,122533.40,A,3600.79786,N,12919.15523,E,2.643,231.65,260620,,,A,V*0A
$GNRMC,122533.50,A,3600.79783,N,12919.15516,E,2.588,232.61,260620,,,A,V*0B
$GNRMC,122533.60,A,3600.79778,N,12919.15509,E,2.621,231.13,260620,,,A,V*04
$GNRMC,122533.70,A,3600.79773,N,12919.15501,E,2.677,230.56,260620,,,A,V*05
$GNRMC,122533.80,A,3600.79768,N,12919.15494,E,2.695,231.02,260620,,,A,V*01
$GNRMC,122533.90,A,3600.79763,N,12919.15486,E,2.687,231.63,260620,,,A,V*0C
$GNRMC,122534.00,A,3600.79759,N,12919.15479,E,2.634,232.41,260620,,,A,V*00
$GNRMC,122534.10,A,3600.79755,N,12919.15473,E,2.574,231.77,260620,,,A,V*06
$GNRMC,122534.20,A,3600.79750,N,12919.15465,E,2.634,230.55,260620,,,A,V*01
$GNRMC,122534.30,A,3600.79744,N,12919.15459,E,2.672,228.91,260620,,,A,V*09
$GNRMC,122534.40,A,3600.79739,N,12919.15451,E,2.670,229.63,260620,,,A,V*02
$GNRMC,122534.50,A,3600.79735,N,12919.15444,E,2.650,231.52,260620,,,A,V*02
$GNRMC,122534.60,A,3600.79731,N,12919.15436,E,2.622,232.53,260620,,,A,V*07
$GNRMC,122534.70,A,3600.79727,N,12919.15429,E,2.661,231.87,260620,,,A,V*02
$GNRMC,122534.80,A,3600.79721,N,12919.15421,E,2.711,230.52,260620,,,A,V*0C
$GNRMC,122534.90,A,3600.79716,N,12919.15413,E,2.752,231.34,260620,,,A,V*0E
$GNRMC,122535.00,A,3600.79711,N,12919.15406,E,2.744,232.27,260620,,,A,V*03
$GNRMC,122535.10,A,3600.79706,N,12919.15399,E,2.725,231.67,260620,,,A,V*05
$GNRMC,122535.20,A,3600.79702,N,12919.15393,E,2.651,230.62,260620,,,A,V*0E
$GNRMC,122535.30,A,3600.79696,N,12919.15386,E,2.704,229.17,260620,,,A,V*0C
$GNRMC,122535.40,A,3600.79691,N,12919.15378,E,2.733,228.46,260620,,,A,V*0C
$GNRMC,122535.50,A,3600.79686,N,12919.15371,E,2.708,229.31,260620,,,A,V*0B
$GNRMC,122535.60,A,3600.79681,N,12919.15364,E,2.687,230.50,260620,,,A,V*02
$GNRMC,122535.70,A,3600.79677,N,12919.15357,E,2.612,230.78,260620,,,A,V*0C
$GNRMC,122535.80,A,3600.79673,N,12919.15350,E,2.604,230.56,260620,,,A,V*0B
$GNRMC,122535.90,A,3600.79668,N,12919.15343,E,2.690,229.44,260620,,,A,V*04
$GNRMC,122536.00,A,3600.79662,N,12919.15335,E,2.742,229.82,260620,,,A,V*01
$GNRMC,122536.10,A,3600.79657,N,12919.15328,E,2.737,231.10,260620,,,A,V*0A
$GNRMC,122536.20,A,3600.79652,N,12919.15322,E,2.705,230.12,260620,,,A,V*04
$GNRMC,122536.30,A,3600.79647,N,12919.15315,E,2.649,229.39,260620,,,A,V*0D
$GNRMC,122536.40,A,3600.79642,N,12919.15308,E,2.680,228.44,260620,,,A,V*0D
$GNRMC,122536.50,A,3600.79637,N,12919.15301,E,2.704,227.65,260620,,,A,V*06
$GNRMC,122536.60,A,3600.79631,N,12919.15295,E,2.725,227.15,260620,,,A,V*0B
$GNRMC,122536.70,A,3600.79626,N,12919.15289,E,2.650,227.46,260620,,,A,V*04
$GNRMC,122536.80,A,3600.79622,N,12919.15283,E,2.562,227.96,260620,,,A,V*0A
$GNRMC,122536.90,A,3600.79617,N,12919.15276,E,2.576,227.57,260620,,,A,V*0F
$GNRMC,122537.00,A,3600.79612,N,12919.15269,E,2.621,226.41,260620,,,A,V*0B
$GNRMC,122537.10,A,3600.79607,N,12919.15262,E,2.676,227.02,260620,,,A,V*01
$GNRMC,122537.20,A,3600.79601,N,12919.15255,E,2.667,228.09,260620,,,A,V*04
$GNRMC,122537.30,A,3600.79596,N,12919.15248,E,2.689,228.20,260620,,,A,V*0F
$GNRMC,122537.40,A,3600.79591,N,12919.15242,E,2.603,228.04,260620,,,A,V*01
$GNRMC,122537.50,A,3600.79587,N,12919.15235,E,2.619,227.10,260620,,,A,V*06
$GNRMC,122537.60,A,3600.79581,N,12919.15228,E,2.667,227.13,260620,,,A,V*05
$GNRMC,122537.70,A,3600.79576,N,12919.15221,E,2.666,226.94,260620,,,A,V*0A
$GNRMC,122537.80,A,3600.79571,N,12919.15215,E,2.608,227.73,260620,,,A,V*05
$GNRMC,122537.90,A,3600.79567,N,12919.15208,E,2.542,229.15,260620,,,A,V*0C
$GNRMC,122538.00,A,3600.79563,N,12919.15202,E,2.522,228.17,260620,,,A,V*01
$GNRMC,122538.10,A,3600.79558,N,12919.15195,E,2.593,227.50,260620,,,A,V*03
$GNRMC,122538.20,A,3600.79553,N,12919.15188,E,2.629,228.72,260620,,,A,V*0A
$GNRMC,122538.30,A,3600.79548,N,12919.15180,E,2.649,229.03,260620,,,A,V*08
$GNRMC,122538.40,A,3600.79542,N,12919.15174,E,2.684,227.64,260620,,,A,V*00
$GNRMC,122538.50,A,3600.79536,N,12919.15169,E,2.593,226.63,260620,,,A,V*0D
$GNRMC,122538.60,A,3600.79531,N,12919.15162,E,2.628,225.98,260620,,,A,V*06
$GNRMC,122538.70,A,3600.79526,N,12919.15155,E,2.655,224.81,260620,,,A,V*06
$GNRMC,122538.80,A,3600.79520,N,12919.15150,E,2.641,223.78,260620,,,A,V*0E
$GNRMC,122538.90,A,3600.79515,N,12919.15143,E,2.625,224.61,260620,,,A,V*06
$GNRMC,122539.00,A,3600.79510,N,12919.15137,E,2.538,225.60,260620,,,A,V*07
$GNRMC,122539.10,A,3600.79505,N,12919.15131,E,2.552,225.37,260620,,,A,V*0A
$GNRMC,122539.20,A,3600.79500,N,12919.15124,E,2.643,224.27,260620,,,A,V*0B
$GNRMC,122539.30,A,3600.79494,N,12919.15117,E,2.670,224.79,260620,,,A,V*0D
$GNRMC,122539.40,A,3600.79489,N,12919.15111,E,2.680,225.60,260620,,,A,V*06
$GNRMC,122539.50,A,3600.79483,N,12919.15104,E,2.664,225.48,260620,,,A,V*09
$GNRMC,122539.60,A,3600.79478,N,12919.15099,E,2.602,224.32,260620,,,A,V*07
$GNRMC,122539.70,A,3600.79472,N,12919.15093,E,2.631,223.45,260620,,,A,V*01
$GNRMC,122539.80,A,3600.79466,N,12919.15086,E,2.682,223.29,260620,,,A,V*0D
$GNRMC,122539.90,A,3600.79461,N,12919.15079,E,2.674,224.67,260620,,,A,V*0F
$GNRMC,122540.00,A,3600.79455,N,12919.15073,E,2.640,224.86,260620,,,A,V*0D
$GNRMC,122540.10,A,3600.79451,N,12919.15067,E,2.562,226.21,260620,,,A,V*01
$GNRMC,122540.20,A,3600.79447,N,12919.15060,E,2.543,227.58,260620,,,A,V*0E
$GNRMC,122540.30,A,3600.79441,N,12919.15053,E,2.654,226.93,260620,,,A,V*0A
$GNRMC,122540.40,A,3600.79436,N,12919.15045,E,2.659,227.83,260620,,,A,V*07
$GNRMC,122540.50,A,3600.79431,N,12919.15038,E,2.653,229.34,260620,,,A,V*03
$GNRMC,122540.60,A,3600.79426,N,12919.15031,E,2.660,228.75,260620,,,A,V*0B
$GNRMC,122540.70,A,3600.79421,N,12919.15026,E,2.589,228.23,260620,,,A,V*0C
$GNRMC,122540.80,A,3600.79416,N,12919.15019,E,2.618,227.35,260620,,,A,V*08
$GNRMC,122540.90,A,3600.79411,N,12919.15012,E,2.685,227.50,260620,,,A,V*02
$GNRMC,122541.00,A,3600.79405,N,12919.15005,E,2.705,227.41,260620,,,A,V*00
$GNRMC,122541.10,A,3600.79401,N,12919.14997,E,2.680,229.14,260620,,,A,V*04
$GNRMC,122541.20,A,3600.79396,N,12919.14991,E,2.616,230.59,260620,,,A,V*06
$GNRMC,122541.30,A,3600.79392,N,12919.14983,E,2.628,232.19,260620,,,A,V*0B
$GNRMC,122541.40,A,3600.79387,N,12919.14975,E,2.708,231.04,260620,,,A,V*0D
$GNRMC,122541.50,A,3600.79382,N,12919.14967,E,2.731,232.19,260620,,,A,V*0F
$GNRMC,122541.60,A,3600.79377,N,12919.14959,E,2.755,233.31,260620,,,A,V*02
$GNRMC,122541.70,A,3600.79372,N,12919.14952,E,2.725,232.61,260620,,,A,V*0E
$GNRMC,122541.80,A,3600.79368,N,12919.14946,E,2.644,231.15,260620,,,A,V*09
$GNRMC,122541.90,A,3600.79362,N,12919.14939,E,2.707,229.94,260620,,,A,V*0C
$GNRMC,122542.00,A,3600.79357,N,12919.14931,E,2.728,229.90,260620,,,A,V*01
$GNRMC,122542.10,A,3600.79352,N,12919.14924,E,2.741,229.44,260620,,,A,V*07
$GNRMC,122542.20,A,3600.79347,N,12919.14917,E,2.691,230.73,260620,,,A,V*00
$GNRMC,122542.30,A,3600.79343,N,12919.14911,E,2.621,231.62,260620,,,A,V*09
$GNRMC,122542.40,A,3600.79338,N,12919.14904,E,2.610,231.35,260620,,,A,V*06
$GNRMC,122542.50,A,3600.79333,N,12919.14896,E,2.708,230.34,260620,,,A,V*0E
$GNRMC,122542.60,A,3600.79328,N,12919.14888,E,2.752,230.01,260620,,,A,V*01
$GNRMC,122542.70,A,3600.79323,N,12919.14881,E,2.713,231.08,260620,,,A,V*0F
$GNRMC,122542.80,A,3600.79318,N,12919.14873,E,2.752,230.32,260620,,,A,V*08
$GNRMC,122542.90,A,3600.79313,N,12919.14867,E,2.689,230.03,260620,,,A,V*02
$GNRMC,122543.00,A,3600.79308,N,12919.14860,E,2.694,228.45,260620,,,A,V*00
$GNRMC,122543.10,A,3600.79303,N,12919.14853,E,2.746,228.04,260620,,,A,V*01
$GNRMC,122543.20,A,3600.79298,N,12919.14846,E,2.755,228.67,260620,,,A,V*02
$GNRMC,122543.30,A,3600.79293,N,12919.14839,E,2.730,228.51,260620,,,A,V*06
$GNRMC,122543.40,A,3600.79289,N,12919.14832,E,2.647,230.08,260620,,,A,V*05
$GNRMC,122543.50,A,3600.79285,N,12919.14825,E,2.620,231.15,260620,,,A,V*02
$GNRMC,122543.60,A,3600.79280,N,12919.14818,E,2.684,231.29,260620,,,A,V*0B
$GNRMC,122543.70,A,3600.79276,N,12919.14810,E,2.682,232.11,260620,,,A,V*05
$GNRMC,122543.80,A,3600.79272,N,12919.14803,E,2.674,233.36,260620,,,A,V*01
$GNRMC,122543.90,A,3600.79267,N,12919.14795,E,2.701,233.00,260620,,,A,V*02
$GNRMC,122544.00,A,3600.79263,N,12919.14789,E,2.580,233.41,260620,,,A,V*0B
$GNRMC,122544.10,A,3600.79259,N,12919.14782,E,2.555,233.23,260620,,,A,V*04
$GNRMC,122544.20,A,3600.79254,N,12919.14775,E,2.621,231.92,260620,,,A,V*0A
$GNRMC,122544.30,A,3600.79249,N,12919.14768,E,2.673,230.57,260620,,,A,V*04
$GNRMC,122544.40,A,3600.79245,N,12919.14761,E,2.607,231.77,260620,,,A,V*06
$GNRMC,122544.50,A,3600.79241,N,12919.14755,E,2.530,232.15,260620,,,A,V*04
$GNRMC,122544.60,A,3600.79237,N,12919.14748,E,2.490,232.05,260620,,,A,V*00
$GNRMC,122544.70,A,3600.79233,N,12919.14741,E,2.561,231.57,260620,,,A,V*07
$GNRMC,122544.80,A,3600.79229,N,12919.14734,E,2.604,231.74,260620,,,A,V*00
$GNRMC,122544.90,A,3600.79224,N,12919.14726,E,2.643,232.35,260620,,,A,V*0A
$GNRMC,122545.00,A,3600.79219,N,12919.14720,E,2.646,230.90,260620,,,A,V*02
$GNRMC,122545.10,A,3600.79214,N,12919.14714,E,2.615,229.53,260620,,,A,V*08
$GNRMC,122545.20,A,3600.79209,N,12919.14707,E,2.615,229.07,260620,,,A,V*04
$GNRMC,122545.30,A,3600.79204,N,12919.14701,E,2.646,226.99,260620,,,A,V*00
$GNRMC,122545.40,A,3600.79199,N,12919.14694,E,2.635,226.30,260620,,,A,V*0A
$GNRMC,122545.50,A,3600.79194,N,12919.14688,E,2.616,227.11,260620,,,A,V*08
$GNRMC,122545.60,A,3600.79190,N,12919.14682,E,2.515,228.66,260620,,,A,V*0A
$GNRMC,122545.70,A,3600.79185,N,12919.14675,E,2.491,229.15,260620,,,A,V*0F
$GNRMC,122545.80,A,3600.79181,N,12919.14668,E,2.546,229.41,260620,,,A,V*02
$GNRMC,122545.90,A,3600.79176,N,12919.14661,E,2.610,230.94,260620,,,A,V*02
$GNRMC,122546.00,A,3600.79172,N,12919.14653,E,2.619,231.86,260620,,,A,V*06
$GNRMC,122546.10,A,3600.79167,N,12919.14647,E,2.602,230.81,260620,,,A,V*0A
$GNRMC,122546.20,A,3600.79162,N,12919.14641,E,2.530,230.14,260620,,,A,V*04
$GNRMC,122546.30,A,3600.79158,N,12919.14634,E,2.560,229.80,260620,,,A,V*0E
$GNRMC,122546.40,A,3600.79152,N,12919.14628,E,2.587,228.23,260620,,,A,V*0F
$GNRMC,122546.50,A,3600.79147,N,12919.14622,E,2.581,227.79,260620,,,A,V*06
$GNRMC,122546.60,A,3600.79142,N,12919.14615,E,2.564,228.07,260620,,,A,V*09
$GNRMC,122546.70,A,3600.79138,N,12919.14609,E,2.483,228.46,260620,,,A,V*05
$GNRMC,122546.80,A,3600.79134,N,12919.14603,E,2.484,229.82,260620,,,A,V*02
$GNRMC,122546.90,A,3600.79129,N,12919.14596,E,2.538,228.96,260620,,,A,V*02
$GNRMC,122547.00,A,3600.79125,N,12919.14589,E,2.579,229.59,260620,,,A,V*0F
$GNRMC,122547.10,A,3600.79120,N,12919.14582,E,2.581,230.62,260620,,,A,V*07
$GNRMC,122547.20,A,3600.79115,N,12919.14575,E,2.606,229.89,260620,,,A,V*0B
$GNRMC,122547.30,A,3600.79110,N,12919.14569,E,2.558,229.16,260620,,,A,V*0C
$GNRMC,122547.40,A,3600.79106,N,12919.14562,E,2.561,229.66,260620,,,A,V*0A
$GNRMC,122547.50,A,3600.79101,N,12919.14556,E,2.570,228.16,260620,,,A,V*0D
$GNRMC,122547.60,A,3600.79096,N,12919.14549,E,2.562,227.90,260620,,,A,V*0D
$GNRMC,122547.70,A,3600.79092,N,12919.14543,E,2.533,229.34,260620,,,A,V*06
$GNRMC,122547.80,A,3600.79088,N,12919.14537,E,2.448,230.16,260620,,,A,V*04
$GNRMC,122547.90,A,3600.79084,N,12919.14530,E,2.443,231.31,260620,,,A,V*01
$GNRMC,122548.00,A,3600.79079,N,12919.14523,E,2.507,231.41,260620,,,A,V*01
$GNRMC,122548.10,A,3600.79075,N,12919.14515,E,2.553,232.13,260620,,,A,V*0C
$GNRMC,122548.20,A,3600.79071,N,12919.14508,E,2.569,233.11,260620,,,A,V*0D
$GNRMC,122548.30,A,3600.79066,N,12919.14502,E,2.570,231.80,260620,,,A,V*02
$GNRMC,122548.40,A,3600.79061,N,12919.14495,E,2.561,230.47,260620,,,A,V*07
$GNRMC,122548.50,A,3600.79057,N,12919.14488,E,2.560,230.23,260620,,,A,V*0C
$GNRMC,122548.60,A,3600.79052,N,12919.14482,E,2.566,228.60,260620,,,A,V*08
$GNRMC,122548.70,A,3600.79046,N,12919.14476,E,2.574,227.44,260620,,,A,V*0D
$GNRMC,122548.80,A,3600.79042,N,12919.14470,E,2.550,227.87,260620,,,A,V*09
$GNRMC,122548.90,A,3600.79037,N,12919.14463,E,2.502,228.57,260620,,,A,V*0D
$GNRMC,122549.00,A,3600.79033,N,12919.14457,E,2.503,229.24,260620,,,A,V*02
$GNRMC,122549.10,A,3600.79029,N,12919.14450,E,2.538,229.50,260620,,,A,V*04
$GNRMC,122549.20,A,3600.79024,N,12919.14442,E,2.602,230.23,260620,,,A,V*0F
$GNRMC,122549.30,A,3600.79020,N,12919.14435,E,2.590,231.63,260620,,,A,V*07
$GNRMC,122549.40,A,3600.79015,N,12919.14429,E,2.549,230.73,260620,,,A,V*0F
$GNRMC,122549.50,A,3600.79011,N,12919.14423,E,2.515,230.54,260620,,,A,V*0C
$GNRMC,122549.60,A,3600.79007,N,12919.14416,E,2.500,230.85,260620,,,A,V*06
$GNRMC,122549.70,A,3600.79002,N,12919.14410,E,2.523,229.27,260620,,,A,V*05
$GNRMC,122549.80,A,3600.78997,N,12919.14404,E,2.540,228.24,260620,,,A,V*0C
$GNRMC,122549.90,A,3600.78992,N,12919.14397,E,2.518,229.24,260620,,,A,V*09
$GNRMC,122550.00,A,3600.78988,N,12919.14391,E,2.469,229.50,260620,,,A,V*01
$GNRMC,122550.10,A,3600.78984,N,12919.14385,E,2.469,229.09,260620,,,A,V*05
$GNRMC,122550.20,A,3600.78979,N,12919.14378,E,2.545,228.67,260620,,,A,V*00
$GNRMC,122550.30,A,3600.78974,N,12919.14370,E,2.626,229.30,260620,,,A,V*01
$GNRMC,122550.40,A,3600.78969,N,12919.14363,E,2.642,230.12,260620,,,A,V*02
$GNRMC,122550.50,A,3600.78965,N,12919.14357,E,2.616,229.70,260620,,,A,V*05
$GNRMC,122550.60,A,3600.78960,N,12919.14350,E,2.591,229.35,260620,,,A,V*09
$GNRMC,122550.70,A,3600.78955,N,12919.14344,E,2.595,229.02,260620,,,A,V*0B
$GNRMC,122550.80,A,3600.78950,N,12919.14337,E,2.624,227.86,260620,,,A,V*0E
$GNRMC,122550.90,A,3600.78945,N,12919.14330,E,2.645,227.57,260620,,,A,V*07
$GNRMC,122551.00,A,3600.78941,N,12919.14324,E,2.612,228.32,260620,,,A,V*00
$GNRMC,122551.10,A,3600.78936,N,12919.14317,E,2.566,229.16,260620,,,A,V*06
$GNRMC,122551.20,A,3600.78932,N,12919.14311,E,2.529,229.63,260620,,,A,V*0E
$GNRMC,122551.30,A,3600.78928,N,12919.14303,E,2.594,230.59,260620,,,A,V*00
$GNRMC,122551.40,A,3600.78923,N,12919.14296,E,2.628,231.74,260620,,,A,V*0B
$GNRMC,122551.50,A,3600.78919,N,12919.14288,E,2.629,233.03,260620,,,A,V*0F
$GNRMC,122551.60,A,3600.78914,N,12919.14282,E,2.607,232.17,260620,,,A,V*03
$GNRMC,122551.70,A,3600.78910,N,12919.14275,E,2.575,231.32,260620,,,A,V*0C
$GNRMC,122551.80,A,3600.78906,N,12919.14269,E,2.564,231.77,260620,,,A,V*08
$GNRMC,122551.90,A,3600.78901,N,12919.14262,E,2.576,230.28,260620,,,A,V*0D
$GNRMC,122552.00,A,3600.78896,N,12919.14255,E,2.632,229.50,260620,,,A,V*08
$GNRMC,122552.10,A,3600.78891,N,12919.14248,E,2.630,230.66,260620,,,A,V*0D
$GNRMC,122552.20,A,3600.78887,N,12919.14242,E,2.551,231.12,260620,,,A,V*05
$GNRMC,122552.30,A,3600.78883,N,12919.14235,E,2.561,231.89,260620,,,A,V*01
$GNRMC,122552.40,A,3600.78878,N,12919.14227,E,2.638,231.97,260620,,,A,V*01
$GNRMC,122552.50,A,3600.78873,N,12919.14219,E,2.712,232.67,260620,,,A,V*03
$GNRMC,122552.60,A,3600.78869,N,12919.14212,E,2.700,233.46,260620,,,A,V*01
$GNRMC,122552.70,A,3600.78865,N,12919.14205,E,2.639,232.98,260620,,,A,V*03
$GNRMC,122552.80,A,3600.78860,N,12919.14199,E,2.581,231.94,260620,,,A,V*00
$GNRMC,122552.90,A,3600.78856,N,12919.14192,E,2.604,231.42,260620,,,A,V*0A
$GNRMC,122553.00,A,3600.78851,N,12919.14185,E,2.629,230.25,260620,,,A,V*0C
$GNRMC,122553.10,A,3600.78846,N,12919.14178,E,2.628,229.56,260620,,,A,V*04
$GNRMC,122553.20,A,3600.78842,N,12919.14172,E,2.570,230.36,260620,,,A,V*09
$GNRMC,122553.30,A,3600.78838,N,12919.14166,E,2.476,231.08,260620,,,A,V*0B
$GNRMC,122553.40,A,3600.78834,N,12919.14159,E,2.466,232.02,260620,,,A,V*04
$GNRMC,122553.50,A,3600.78830,N,12919.14151,E,2.546,232.73,260620,,,A,V*0C
$GNRMC,122553.60,A,3600.78825,N,12919.14144,E,2.574,233.05,260620,,,A,V*0E
$GNRMC,122553.70,A,3600.78821,N,12919.14136,E,2.597,234.45,260620,,,A,V*00
$GNRMC,122553.80,A,3600.78817,N,12919.14130,E,2.565,233.85,260620,,,A,V*0A
$GNRMC,122553.90,A,3600.78813,N,12919.14123,E,2.521,233.51,260620,,,A,V*04
$GNRMC,122554.00,A,3600.78809,N,12919.14116,E,2.533,233.16,260620,,,A,V*07
$GNRMC,122554.10,A,3600.78804,N,12919.14109,E,2.552,232.56,260620,,,A,V*07
$GNRMC,122554.20,A,3600.78800,N,12919.14103,E,2.579,231.02,260620,,,A,V*01
$GNRMC,122554.30,A,3600.78795,N,12919.14096,E,2.578,231.26,260620,,,A,V*09
$GNRMC,122554.40,A,3600.78791,N,12919.14089,E,2.518,231.18,260620,,,A,V*0F
$GNRMC,122554.50,A,3600.78786,N,12919.14082,E,2.550,231.73,260620,,,A,V*02
$GNRMC,122554.60,A,3600.78782,N,12919.14075,E,2.622,230.69,260620,,,A,V*01
$GNRMC,122554.70,A,3600.78777,N,12919.14067,E,2.680,231.24,260620,,,A,V*09
$GNRMC,122554.80,A,3600.78772,N,12919.14060,E,2.686,232.38,260620,,,A,V*0C
$GNRMC,122554.90,A,3600.78767,N,12919.14053,E,2.672,231.33,260620,,,A,V*0A
$GNRMC,122555.00,A,3600.78763,N,12919.14047,E,2.628,230.11,260620,,,A,V*0D
$GNRMC,122555.10,A,3600.78758,N,12919.14040,E,2.617,229.70,260620,,,A,V*00
$GNRMC,122555.20,A,3600.78753,N,12919.14033,E,2.648,229.20,260620,,,A,V*03
$GNRMC,122555.30,A,3600.78748,N,12919.14026,E,2.637,229.27,260620,,,A,V*03
$GNRMC,122555.40,A,3600.78744,N,12919.14020,E,2.569,229.82,260620,,,A,V*09
$GNRMC,122555.50,A,3600.78740,N,12919.14014,E,2.483,230.32,260620,,,A,V*0D
$GNRMC,122555.60,A,3600.78736,N,12919.14007,E,2.481,230.47,260620,,,A,V*0D
$GNRMC,122555.70,A,3600.78731,N,12919.14000,E,2.553,230.29,260620,,,A,V*0A
$GNRMC,122555.80,A,3600.78726,N,12919.13993,E,2.610,231.15,260620,,,A,V*0D
$GNRMC,122555.90,A,3600.78722,N,12919.13985,E,2.618,232.04,260620,,,A,V*04
$GNRMC,122556.00,A,3600.78717,N,12919.13979,E,2.608,230.64,260620,,,A,V*0E
$GNRMC,122556.10,A,3600.78713,N,12919.13973,E,2.572,230.11,260620,,,A,V*0D
$GNRMC,122556.20,A,3600.78708,N,12919.13966,E,2.568,230.49,260620,,,A,V*06
$GNRMC,122556.30,A,3600.78703,N,12919.13959,E,2.590,229.34,260620,,,A,V*05
$GNRMC,122556.40,A,3600.78698,N,12919.13953,E,2.585,228.86,260620,,,A,V*07
$GNRMC,122556.50,A,3600.78694,N,12919.13946,E,2.528,230.18,260620,,,A,V*07
$GNRMC,122556.60,A,3600.78691,N,12919.13940,E,2.463,231.57,260620,,,A,V*03
$GNRMC,122556.70,A,3600.78686,N,12919.13933,E,2.483,231.57,260620,,,A,V*0E
$GNRMC,122556.80,A,3600.78682,N,12919.13926,E,2.519,230.82,260620,,,A,V*0A
$GNRMC,122556.90,A,3600.78678,N,12919.13918,E,2.584,232.80,260620,,,A,V*07
$GNRMC,122557.00,A,3600.78673,N,12919.13911,E,2.583,232.80,260620,,,A,V*0A
$GNRMC,122557.10,A,3600.78668,N,12919.13904,E,2.615,232.30,260620,,,A,V*02
$GNRMC,122557.20,A,3600.78664,N,12919.13897,E,2.577,231.49,260620,,,A,V*0C
$GNRMC,122557.30,A,3600.78659,N,12919.13890,E,2.597,231.38,260620,,,A,V*0C
$GNRMC,122557.40,A,3600.78654,N,12919.13883,E,2.623,230.65,260620,,,A,V*01
$GNRMC,122557.50,A,3600.78649,N,12919.13877,E,2.649,229.43,260620,,,A,V*07
$GNRMC,122557.60,A,3600.78645,N,12919.13870,E,2.598,230.58,260620,,,A,V*02
$GNRMC,122557.70,A,3600.78641,N,12919.13863,E,2.546,230.91,260620,,,A,V*03
$GNRMC,122557.80,A,3600.78637,N,12919.13857,E,2.535,231.44,260620,,,A,V*07
$GNRMC,122557.90,A,3600.78632,N,12919.13849,E,2.595,231.32,260620,,,A,V*07
$GNRMC,122558.00,A,3600.78627,N,12919.13842,E,2.648,231.70,260620,,,A,V*0B
$GNRMC,122558.10,A,3600.78623,N,12919.13834,E,2.672,233.12,260620,,,A,V*00
$GNRMC,122558.20,A,3600.78618,N,12919.13827,E,2.719,231.41,260620,,,A,V*01
$GNRMC,122558.30,A,3600.78613,N,12919.13820,E,2.655,231.20,260620,,,A,V*02
$GNRMC,122558.40,A,3600.78609,N,12919.13813,E,2.683,230.78,260620,,,A,V*09
$GNRMC,122558.50,A,3600.78604,N,12919.13806,E,2.708,230.00,260620,,,A,V*0C
$GNRMC,122558.60,A,3600.78598,N,12919.13799,E,2.716,228.96,260620,,,A,V*09
$GNRMC,122558.70,A,3600.78594,N,12919.13792,E,2.697,230.53,260620,,,A,V*07
$GNRMC,122558.80,A,3600.78590,N,12919.13786,E,2.600,229.50,260620,,,A,V*0C
$GNRMC,122558.90,A,3600.78585,N,12919.13779,E,2.606,230.84,260620,,,A,V*0E
$GNRMC,122559.00,A,3600.78581,N,12919.13772,E,2.657,230.38,260620,,,A,V*0A
$GNRMC,122559.10,A,3600.78576,N,12919.13764,E,2.699,230.21,260620,,,A,V*0E
$GNRMC,122559.20,A,3600.78571,N,12919.13757,E,2.732,231.28,260620,,,A,V*02
$GNRMC,122559.30,A,3600.78566,N,12919.13750,E,2.710,230.48,260620,,,A,V*05
$GNRMC,122559.40,A,3600.78561,N,12919.13744,E,2.654,229.18,260620,,,A,V*0C
$GNRMC,122559.50,A,3600.78557,N,12919.13737,E,2.660,229.52,260620,,,A,V*05
$GNRMC,122559.60,A,3600.78551,N,12919.13730,E,2.673,227.43,260620,,,A,V*0B
$GNRMC,122559.70,A,3600.78546,N,12919.13724,E,2.661,227.57,260620,,,A,V*0F
$GNRMC,122559.80,A,3600.78541,N,12919.13718,E,2.637,227.08,260620,,,A,V*01
$GNRMC,122559.90,A,3600.78537,N,12919.13712,E,2.567,227.30,260620,,,A,V*06
$GNRMC,122600.00,A,3600.78533,N,12919.13705,E,2.541,227.74,260620,,,A,V*06
$GNRMC,122600.10,A,3600.78528,N,12919.13698,E,2.591,228.14,260620,,,A,V*0C
$GNRMC,122600.20,A,3600.78523,N,12919.13691,E,2.620,229.21,260620,,,A,V*03
$GNRMC,122600.30,A,3600.78519,N,12919.13684,E,2.666,230.52,260620,,,A,V*01
$GNRMC,122600.40,A,3600.78514,N,12919.13677,E,2.678,228.88,260620,,,A,V*06
$GNRMC,122600.50,A,3600.78509,N,12919.13671,E,2.617,227.85,260620,,,A,V*06
$GNRMC,122600.60,A,3600.78504,N,12919.13664,E,2.653,228.95,260620,,,A,V*02
$GNRMC,122600.70,A,3600.78499,N,12919.13657,E,2.675,228.08,260620,,,A,V*06
$GNRMC,122600.80,A,3600.78494,N,12919.13650,E,2.656,227.88,260620,,,A,V*05
$GNRMC,122600.90,A,3600.78490,N,12919.13644,E,2.639,228.76,260620,,,A,V*02
$GNRMC,122601.00,A,3600.78486,N,12919.13638,E,2.508,229.22,260620,,,A,V*07
$GNRMC,122601.10,A,3600.78481,N,12919.13631,E,2.590,229.45,260620,,,A,V*08
$GNRMC,122601.20,A,3600.78477,N,12919.13624,E,2.593,229.09,260620,,,A,V*0D
$GNRMC,122601.30,A,3600.78472,N,12919.13616,E,2.685,229.98,260620,,,A,V*04
$GNRMC,122601.40,A,3600.78467,N,12919.13609,E,2.677,230.54,260620,,,A,V*0C
$GNRMC,122601.50,A,3600.78463,N,12919.13603,E,2.624,229.26,260620,,,A,V*08
$GNRMC,122601.60,A,3600.78458,N,12919.13597,E,2.646,228.32,260620,,,A,V*0D
$GNRMC,122601.70,A,3600.78453,N,12919.13590,E,2.662,227.73,260620,,,A,V*0C
$GNRMC,122601.80,A,3600.78448,N,12919.13584,E,2.653,226.65,260620,,,A,V*08
$GNRMC,122601.90,A,3600.78443,N,12919.13577,E,2.667,227.02,260620,,,A,V*09
$GNRMC,122602.00,A,3600.78438,N,12919.13571,E,2.626,227.67,260620,,,A,V*0F
$GNRMC,122602.10,A,3600.78434,N,12919.13564,E,2.550,228.94,260620,,,A,V*07
$GNRMC,122602.20,A,3600.78430,N,12919.13557,E,2.584,230.09,260620,,,A,V*04
$GNRMC,122602.30,A,3600.78425,N,12919.13549,E,2.679,229.85,260620,,,A,V*03
$GNRMC,122602.40,A,3600.78420,N,12919.13541,E,2.748,231.68,260620,,,A,V*00
$GNRMC,122602.50,A,3600.78416,N,12919.13534,E,2.733,233.26,260620,,,A,V*02
$GNRMC,122602.60,A,3600.78412,N,12919.13527,E,2.723,232.47,260620,,,A,V*00
$GNRMC,122602.70,A,3600.78407,N,12919.13520,E,2.677,231.49,260620,,,A,V*0F
$GNRMC,122602.80,A,3600.78403,N,12919.13513,E,2.723,230.94,260620,,,A,V*05
$GNRMC,122602.90,A,3600.78397,N,12919.13506,E,2.745,229.46,260620,,,A,V*0D
$GNRMC,122603.00,A,3600.78392,N,12919.13499,E,2.761,228.84,260620,,,A,V*0E
$GNRMC,122603.10,A,3600.78388,N,12919.13492,E,2.703,229.39,260620,,,A,V*0C
$GNRMC,122603.20,A,3600.78383,N,12919.13486,E,2.636,229.06,260620,,,A,V*0A
$GNRMC,122603.30,A,3600.78379,N,12919.13479,E,2.650,229.01,260620,,,A,V*09
$GNRMC,122603.40,A,3600.78373,N,12919.13472,E,2.744,227.72,260620,,,A,V*01
$GNRMC,122603.50,A,3600.78368,N,12919.13464,E,2.790,228.64,260620,,,A,V*0C
$GNRMC,122603.60,A,3600.78363,N,12919.13457,E,2.829,228.48,260620,,,A,V*07
$GNRMC,122603.70,A,3600.78358,N,12919.13450,E,2.781,227.65,260620,,,A,V*04
$GNRMC,122603.80,A,3600.78353,N,12919.13444,E,2.768,227.31,260620,,,A,V*03
$GNRMC,122603.90,A,3600.78347,N,12919.13437,E,2.795,226.75,260620,,,A,V*00
$GNRMC,122604.00,A,3600.78342,N,12919.13430,E,2.777,226.23,260620,,,A,V*03
$GNRMC,122604.10,A,3600.78337,N,12919.13423,E,2.804,226.19,260620,,,A,V*00
$GNRMC,122604.20,A,3600.78332,N,12919.13416,E,2.733,227.91,260620,,,A,V*0A
$GNRMC,122604.30,A,3600.78328,N,12919.13410,E,2.615,228.47,260620,,,A,V*07
$GNRMC,122604.40,A,3600.78324,N,12919.13403,E,2.657,228.77,260620,,,A,V*0B
$GNRMC,122604.50,A,3600.78319,N,12919.13395,E,2.696,229.08,260620,,,A,V*08
$GNRMC,122604.60,A,3600.78315,N,12919.13388,E,2.676,230.42,260620,,,A,V*03
$GNRMC,122604.70,A,3600.78310,N,12919.13381,E,2.690,230.15,260620,,,A,V*04
$GNRMC,122604.80,A,3600.78305,N,12919.13374,E,2.716,229.67,260620,,,A,V*07
$GNRMC,122604.90,A,3600.78300,N,12919.13368,E,2.686,229.08,260620,,,A,V*0F
$GNRMC,122605.00,A,3600.78295,N,12919.13360,E,2.715,228.65,260620,,,A,V*03
$GNRMC,122605.10,A,3600.78290,N,12919.13353,E,2.766,227.52,260620,,,A,V*08
$GNRMC,122605.20,A,3600.78285,N,12919.13347,E,2.759,227.78,260620,,,A,V*0E
$GNRMC,122605.30,A,3600.78280,N,12919.13340,E,2.693,229.06,260620,,,A,V*0D
$GNRMC,122605.40,A,3600.78276,N,12919.13333,E,2.661,229.85,260620,,,A,V*01
$GNRMC,122605.50,A,3600.78271,N,12919.13325,E,2.711,230.07,260620,,,A,V*04
$GNRMC,122605.60,A,3600.78266,N,12919.13318,E,2.738,228.70,260620,,,A,V*0D
$GNRMC,122605.70,A,3600.78261,N,12919.13311,E,2.775,229.73,260620,,,A,V*09
$GNRMC,122605.80,A,3600.78256,N,12919.13303,E,2.823,230.45,260620,,,A,V*00
$GNRMC,122605.90,A,3600.78251,N,12919.13297,E,2.754,228.71,260620,,,A,V*0B
$GNRMC,122606.00,A,3600.78246,N,12919.13290,E,2.730,228.68,260620,,,A,V*0A
$GNRMC,122606.10,A,3600.78241,N,12919.13283,E,2.776,227.47,260620,,,A,V*0E
$GNRMC,122606.20,A,3600.78236,N,12919.13276,E,2.787,227.44,260620,,,A,V*0A
$GNRMC,122606.30,A,3600.78231,N,12919.13270,E,2.763,227.49,260620,,,A,V*0D
$GNRMC,122606.40,A,3600.78227,N,12919.13263,E,2.696,228.89,260620,,,A,V*07
$GNRMC,122606.50,A,3600.78222,N,12919.13256,E,2.680,230.02,260620,,,A,V*08
$GNRMC,122606.60,A,3600.78217,N,12919.13249,E,2.717,228.13,260620,,,A,V*05
$GNRMC,122606.70,A,3600.78212,N,12919.13242,E,2.759,228.43,260620,,,A,V*05
$GNRMC,122606.80,A,3600.78207,N,12919.13234,E,2.754,229.75,260620,,,A,V*06
$GNRMC,122606.90,A,3600.78202,N,12919.13227,E,2.791,230.38,260620,,,A,V*08
$GNRMC,122607.00,A,3600.78197,N,12919.13220,E,2.765,229.31,260620,,,A,V*02
$GNRMC,122607.10,A,3600.78193,N,12919.13213,E,2.744,228.81,260620,,,A,V*0E
$GNRMC,122607.20,A,3600.78187,N,12919.13206,E,2.765,228.04,260620,,,A,V*02
$GNRMC,122607.30,A,3600.78182,N,12919.13200,E,2.725,227.38,260620,,,A,V*04
$GNRMC,122607.40,A,3600.78177,N,12919.13193,E,2.751,228.29,260620,,,A,V*0C
$GNRMC,122607.50,A,3600.78173,N,12919.13186,E,2.676,229.95,260620,,,A,V*0F
$GNRMC,122607.60,A,3600.78170,N,12919.13179,E,2.627,231.43,260620,,,A,V*09
$GNRMC,122607.70,A,3600.78164,N,12919.13171,E,2.702,229.94,260620,,,A,V*00
$GNRMC,122607.80,A,3600.78160,N,12919.13163,E,2.777,230.94,260620,,,A,V*02
$GNRMC,122607.90,A,3600.78155,N,12919.13155,E,2.804,232.53,260620,,,A,V*02
$GNRMC,122608.00,A,3600.78150,N,12919.13148,E,2.811,232.41,260620,,,A,V*0A
$GNRMC,122608.10,A,3600.78146,N,12919.13141,E,2.722,231.47,260620,,,A,V*0F
$GNRMC,122608.20,A,3600.78142,N,12919.13134,E,2.728,232.37,260620,,,A,V*04
$GNRMC,122608.30,A,3600.78137,N,12919.13127,E,2.732,230.98,260620,,,A,V*09
$GNRMC,122608.40,A,3600.78132,N,12919.13120,E,2.724,230.52,260620,,,A,V*0D
$GNRMC,122608.50,A,3600.78127,N,12919.13113,E,2.710,230.67,260620,,,A,V*09
$GNRMC,122608.60,A,3600.78123,N,12919.13106,E,2.661,231.92,260620,,,A,V*06
$GNRMC,122608.70,A,3600.78119,N,12919.13099,E,2.620,231.57,260620,,,A,V*05
$GNRMC,122608.80,A,3600.78114,N,12919.13092,E,2.686,230.18,260620,,,A,V*0A
$GNRMC,122608.90,A,3600.78109,N,12919.13084,E,2.765,230.34,260620,,,A,V*02
$GNRMC,122609.00,A,3600.78104,N,12919.13077,E,2.741,231.14,260620,,,A,V*0E
$GNRMC,122609.10,A,3600.78099,N,12919.13070,E,2.760,230.89,260620,,,A,V*0B
$GNRMC,122609.20,A,3600.78094,N,12919.13063,E,2.762,229.62,260620,,,A,V*08
$GNRMC,122609.30,A,3600.78090,N,12919.13056,E,2.736,228.89,260620,,,A,V*0E
$GNRMC,122609.40,A,3600.78085,N,12919.13049,E,2.741,228.29,260620,,,A,V*09
$GNRMC,122609.50,A,3600.78079,N,12919.13042,E,2.752,227.74,260620,,,A,V*05
$GNRMC,122609.60,A,3600.78074,N,12919.13036,E,2.744,227.51,260620,,,A,V*08
$GNRMC,122609.70,A,3600.78070,N,12919.13030,E,2.654,228.44,260620,,,A,V*00
$GNRMC,122609.80,A,3600.78066,N,12919.13023,E,2.629,229.26,260620,,,A,V*05
$GNRMC,122609.90,A,3600.78060,N,12919.13015,E,2.711,228.30,260620,,,A,V*0B
$GNRMC,122610.00,A,3600.78055,N,12919.13008,E,2.759,228.29,260620,,,A,V*04
$GNRMC,122610.10,A,3600.78050,N,12919.13000,E,2.768,229.75,260620,,,A,V*02
$GNRMC,122610.20,A,3600.78045,N,12919.12993,E,2.806,229.41,260620,,,A,V*07
$GNRMC,122610.30,A,3600.78040,N,12919.12987,E,2.746,228.74,260620,,,A,V*0A
$GNRMC,122610.40,A,3600.78035,N,12919.12980,E,2.740,228.18,260620,,,A,V*04
$GNRMC,122610.50,A,3600.78030,N,12919.12973,E,2.752,227.67,260620,,,A,V*08
$GNRMC,122610.60,A,3600.78025,N,12919.12966,E,2.773,227.30,260620,,,A,V*0A
$GNRMC,122610.70,A,3600.78020,N,12919.12959,E,2.766,227.68,260620,,,A,V*0B
$GNRMC,122610.80,A,3600.78016,N,12919.12953,E,2.676,228.56,260620,,,A,V*09
$GNRMC,122610.90,A,3600.78011,N,12919.12946,E,2.672,229.25,260620,,,A,V*0A
$GNRMC,122611.00,A,3600.78006,N,12919.12938,E,2.723,227.91,260620,,,A,V*09
$GNRMC,122611.10,A,3600.78001,N,12919.12931,E,2.767,228.25,260620,,,A,V*06
$GNRMC,122611.20,A,3600.77995,N,12919.12924,E,2.793,228.78,260620,,,A,V*09
$GNRMC,122611.30,A,3600.77990,N,12919.12916,E,2.840,227.85,260620,,,A,V*00
$GNRMC,122611.40,A,3600.77985,N,12919.12911,E,2.741,226.52,260620,,,A,V*01
$GNRMC,122611.50,A,3600.77979,N,12919.12904,E,2.753,225.50,260620,,,A,V*05
$GNRMC,122611.60,A,3600.77973,N,12919.12898,E,2.781,223.64,260620,,,A,V*06
$GNRMC,122611.70,A,3600.77968,N,12919.12892,E,2.759,223.17,260620,,,A,V*06
$GNRMC,122611.80,A,3600.77962,N,12919.12886,E,2.748,223.13,260620,,,A,V*02
$GNRMC,122611.90,A,3600.77957,N,12919.12880,E,2.666,222.58,260620,,,A,V*00
$GNRMC,122612.00,A,3600.77952,N,12919.12874,E,2.663,222.39,260620,,,A,V*06
$GNRMC,122612.10,A,3600.77946,N,12919.12868,E,2.706,220.57,260620,,,A,V*07
$GNRMC,122612.20,A,3600.77939,N,12919.12862,E,2.747,219.90,260620,,,A,V*02
$GNRMC,122612.30,A,3600.77933,N,12919.12856,E,2.801,220.62,260620,,,A,V*04
$GNRMC,122612.40,A,3600.77927,N,12919.12850,E,2.810,218.80,260620,,,A,V*07
$GNRMC,122612.50,A,3600.77921,N,12919.12845,E,2.763,217.99,260620,,,A,V*08
$GNRMC,122612.60,A,3600.77914,N,12919.12840,E,2.771,215.59,260620,,,A,V*05
$GNRMC,122612.70,A,3600.77907,N,12919.12835,E,2.780,215.04,260620,,,A,V*02
$GNRMC,122612.80,A,3600.77901,N,12919.12830,E,2.798,214.13,260620,,,A,V*00
