$GNRMC,122639.90,A,3600.76468,N,12919.15307,E,2.781,144.07,260620,,,A*72
$GNRMC,122640.00,A,3600.76421,N,12919.15272,E,2.649,145.39,260620,,,A*72
$GNRMC,122640.10,A,3600.76413,N,12919.15272,E,2.475,144.61,260620,,,A*73
$GNRMC,122640.20,A,3600.76418,N,12919.15283,E,2.417,146.30,260620,,,A*77
$GNRMC,122640.30,A,3600.76433,N,12919.15304,E,2.351,143.96,260620,,,A*7D
$GNRMC,122640.40,A,3600.76392,N,12919.15283,E,2.499,145.72,260620,,,A*77
$GNRMC,122640.50,A,3600.76398,N,12919.15294,E,2.611,146.06,260620,,,A*78
$GNRMC,122640.60,A,3600.76386,N,12919.15298,E,2.649,143.97,260620,,,A*78
$GNRMC,122640.70,A,3600.76380,N,12919.15317,E,2.640,143.75,260620,,,A*7C
$GNRMC,122640.80,A,3600.76405,N,12919.15348,E,2.333,145.19,260620,,,A*7E
$GNRMC,122640.90,A,3600.76368,N,12919.15332,E,2.175,144.92,260620,,,A*7C
$GNRMC,122641.00,A,3600.76346,N,12919.15331,E,2.559,147.11,260620,,,A*79
$GNRMC,122641.10,A,3600.76342,N,12919.15344,E,2.487,148.61,260620,,,A*74
$GNRMC,122641.20,A,3600.76330,N,12919.15351,E,2.388,146.71,260620,,,A*71
$GNRMC,122641.30,A,3600.76322,N,12919.15363,E,2.441,147.46,260620,,,A*75
$GNRMC,122641.40,A,3600.76328,N,12919.15384,E,2.255,142.69,260620,,,A*7A
$GNRMC,122641.50,A,3600.76307,N,12919.15381,E,2.280,144.64,260620,,,A*70
$GNRMC,122641.60,A,3600.76298,N,12919.15389,E,2.675,151.94,260620,,,A*79
$GNRMC,122641.70,A,3600.76297,N,12919.15397,E,2.538,154.98,260620,,,A*7B
$GNRMC,122641.80,A,3600.76305,N,12919.15411,E,2.486,157.84,260620,,,A*7D
$GNRMC,122641.90,A,3600.76309,N,12919.15427,E,2.510,158.08,260620,,,A*70
$GNRMC,122642.00,A,3600.76316,N,12919.15442,E,2.261,157.15,260620,,,A*75
$GNRMC,122642.10,A,3600.76305,N,12919.15444,E,2.461,159.01,260620,,,A*7D
$GNRMC,122642.20,A,3600.76289,N,12919.15446,E,2.663,151.83,260620,,,A*7B
$GNRMC,122642.30,A,3600.76308,N,12919.15473,E,2.517,146.67,260620,,,A*78
$GNRMC,122642.40,A,3600.76340,N,12919.15504,E,2.312,144.89,260620,,,A*73
$GNRMC,122642.50,A,3600.76317,N,12919.15492,E,2.268,145.60,260620,,,A*74
$GNRMC,122642.60,A,3600.76327,N,12919.15507,E,2.303,144.11,260620,,,A*72
$GNRMC,122642.70,A,3600.76304,N,12919.15500,E,2.509,145.28,260620,,,A*72
$GNRMC,122642.80,A,3600.76255,N,12919.15484,E,2.607,145.28,260620,,,A*78
$GNRMC,122642.90,A,3600.76233,N,12919.15482,E,2.565,144.32,260620,,,A*72
$GNRMC,122643.00,A,3600.76211,N,12919.15484,E,2.449,143.39,260620,,,A*7F
$GNRMC,122643.10,A,3600.76204,N,12919.15486,E,2.072,147.08,260620,,,A*72
$GNRMC,122643.20,A,3600.76226,N,12919.15505,E,1.907,157.44,260620,,,A*7A
$GNRMC,122643.30,A,3600.76205,N,12919.15499,E,2.166,161.27,260620,,,A*72
$GNRMC,122643.40,A,3600.76172,N,12919.15480,E,1.913,162.83,260620,,,A*7A
$GNRMC,122643.50,A,3600.76182,N,12919.15498,E,2.195,161.92,260620,,,A*7B
$GNRMC,122643.60,A,3600.76201,N,12919.15525,E,2.157,155.95,260620,,,A*79
$GNRMC,122643.70,A,3600.76186,N,12919.15523,E,2.111,153.36,260620,,,A*7F
$GNRMC,122643.80,A,3600.76196,N,12919.15545,E,2.586,148.27,260620,,,A*71
$GNRMC,122643.90,A,3600.76178,N,12919.15541,E,2.670,147.01,260620,,,A*75
$GNRMC,122644.00,A,3600.76156,N,12919.15532,E,2.611,147.44,260620,,,A*75
$GNRMC,122644.10,A,3600.76154,N,12919.15542,E,2.646,140.28,260620,,,A*7E
$GNRMC,122644.20,A,3600.76153,N,12919.15546,E,2.530,139.95,260620,,,A*74
$GNRMC,122644.30,A,3600.76116,N,12919.15518,E,2.503,139.51,260620,,,A*77
$GNRMC,122644.40,A,3600.76103,N,12919.15509,E,2.614,139.33,260620,,,A*75
$GNRMC,122644.50,A,3600.76055,N,12919.15478,E,2.651,139.01,260620,,,A*71
$GNRMC,122644.60,A,3600.76058,N,12919.15483,E,2.509,137.86,260620,,,A*74
$GNRMC,122644.70,A,3600.76055,N,12919.15484,E,2.510,139.61,260620,,,A*70
$GNRMC,122644.80,A,3600.76073,N,12919.15502,E,2.406,139.06,260620,,,A*73
$GNRMC,122644.90,A,3600.76040,N,12919.15475,E,2.675,140.67,260620,,,A*7C
$GNRMC,122645.00,A,3600.76052,N,12919.15484,E,2.858,147.63,260620,,,A*7B
$GNRMC,122645.10,A,3600.76069,N,12919.15502,E,2.699,150.25,260620,,,A*7A
$GNRMC,122645.20,A,3600.76100,N,12919.15536,E,2.855,148.97,260620,,,A*7E
$GNRMC,122645.30,A,3600.76096,N,12919.15537,E,2.382,149.43,260620,,,A*79
$GNRMC,122645.40,A,3600.76098,N,12919.15544,E,2.603,147.84,260620,,,A*7D
$GNRMC,122645.50,A,3600.76081,N,12919.15534,E,2.496,148.67,260620,,,A*7F
$GNRMC,122645.60,A,3600.76045,N,12919.15511,E,2.409,146.43,260620,,,A*7D
$GNRMC,122645.70,A,3600.76076,N,12919.15541,E,2.594,145.76,260620,,,A*79
$GNRMC,122645.80,A,3600.76062,N,12919.15537,E,2.373,144.54,260620,,,A*7C
$GNRMC,122645.90,A,3600.76051,N,12919.15535,E,2.234,143.04,260620,,,A*7F
$GNRMC,122646.00,A,3600.76034,N,12919.15534,E,2.481,143.36,260620,,,A*7E
$GNRMC,122646.10,A,3600.76032,N,12919.15538,E,2.454,144.41,260620,,,A*7A
$GNRMC,122646.20,A,3600.76012,N,12919.15531,E,2.702,144.50,260620,,,A*72
$GNRMC,122646.30,A,3600.75990,N,12919.15523,E,2.672,141.90,260620,,,A*7F
$GNRMC,122646.40,A,3600.75990,N,12919.15527,E,2.293,141.37,260620,,,A*7A
$GNRMC,122646.50,A,3600.75972,N,12919.15509,E,2.233,149.49,260620,,,A*70
$GNRMC,122646.60,A,3600.75967,N,12919.15500,E,1.914,155.19,260620,,,A*7B
$GNRMC,122646.70,A,3600.75948,N,12919.15488,E,2.293,154.32,260620,,,A*79
$GNRMC,122646.80,A,3600.75930,N,12919.15477,E,2.209,155.68,260620,,,A*74
$GNRMC,122646.90,A,3600.75924,N,12919.15474,E,2.322,154.10,260620,,,A*75
$GNRMC,122647.00,A,3600.75953,N,12919.15499,E,2.445,150.18,260620,,,A*74
$GNRMC,122647.10,A,3600.75948,N,12919.15493,E,2.364,148.94,260620,,,A*7C
$GNRMC,122647.20,A,3600.75951,N,12919.15497,E,2.621,149.87,260620,,,A*74
$GNRMC,122647.30,A,3600.75965,N,12919.15512,E,2.741,148.01,260620,,,A*76
$GNRMC,122647.40,A,3600.75950,N,12919.15506,E,2.589,145.70,260620,,,A*7F
$GNRMC,122647.50,A,3600.75945,N,12919.15507,E,2.570,145.25,260620,,,A*7D
$GNRMC,122647.60,A,3600.75926,N,12919.15496,E,2.547,142.50,260620,,,A*73
$GNRMC,122647.70,A,3600.75907,N,12919.15487,E,2.557,141.59,260620,,,A*7A
$GNRMC,122647.80,A,3600.75895,N,12919.15483,E,2.447,140.97,260620,,,A*78
$GNRMC,122647.90,A,3600.75885,N,12919.15482,E,2.532,140.56,260620,,,A*77
$GNRMC,122648.00,A,3600.75879,N,12919.15482,E,2.246,140.37,260620,,,A*71
$GNRMC,122648.10,A,3600.75940,N,12919.15523,E,2.474,140.66,260620,,,A*72
$GNRMC,122648.20,A,3600.76075,N,12919.15597,E,2.621,141.44,260620,,,A*71
$GNRMC,122648.30,A,3600.76144,N,12919.15640,E,2.613,139.62,260620,,,A*70
$GNRMC,122648.40,A,3600.76138,N,12919.15630,E,2.674,142.03,260620,,,A*71
$GNRMC,122648.50,A,3600.76126,N,12919.15623,E,2.767,139.16,260620,,,A*76
$GNRMC,122648.60,A,3600.76089,N,12919.15596,E,2.563,137.88,260620,,,A*73
$GNRMC,122648.70,A,3600.76078,N,12919.15587,E,2.642,138.53,260620,,,A*75
$GNRMC,122648.80,A,3600.76072,N,12919.15582,E,2.569,137.07,260620,,,A*71
$GNRMC,122648.90,A,3600.76048,N,12919.15563,E,2.652,136.48,260620,,,A*77
$GNRMC,122649.00,A,3600.76050,N,12919.15563,E,2.486,136.66,260620,,,A*71
$GNRMC,122649.10,A,3600.76075,N,12919.15579,E,2.398,136.41,260620,,,A*71
$GNRMC,122649.20,A,3600.76055,N,12919.15561,E,2.262,137.44,260620,,,A*79
$GNRMC,122649.30,A,3600.76034,N,12919.15543,E,2.574,138.54,260620,,,A*71
$GNRMC,122649.40,A,3600.75997,N,12919.15517,E,2.656,140.23,260620,,,A*78
$GNRMC,122649.50,A,3600.75964,N,12919.15493,E,2.592,140.89,260620,,,A*73
$GNRMC,122649.60,A,3600.75959,N,12919.15491,E,2.654,140.43,260620,,,A*73
$GNRMC,122649.70,A,3600.75949,N,12919.15490,E,2.499,140.95,260620,,,A*7A
$GNRMC,122649.80,A,3600.75963,N,12919.15503,E,2.395,136.44,260620,,,A*70
$GNRMC,122649.90,A,3600.75953,N,12919.15497,E,2.407,131.91,260620,,,A*7D
$GNRMC,122650.00,A,3600.75915,N,12919.15469,E,2.587,136.73,260620,,,A*7D
$GNRMC,122650.10,A,3600.75892,N,12919.15448,E,2.524,138.46,260620,,,A*70
$GNRMC,122650.20,A,3600.75880,N,12919.15439,E,2.493,136.55,260620,,,A*77
$GNRMC,122650.30,A,3600.75852,N,12919.15419,E,2.560,141.41,260620,,,A*73
$GNRMC,122650.40,A,3600.75857,N,12919.15430,E,2.688,141.29,260620,,,A*71
$GNRMC,122650.50,A,3600.75863,N,12919.15441,E,2.523,139.82,260620,,,A*7D
$GNRMC,122650.60,A,3600.75825,N,12919.15421,E,2.672,142.94,260620,,,A*76
$GNRMC,122650.70,A,3600.75812,N,12919.15417,E,2.879,139.40,260620,,,A*76
$GNRMC,122650.80,A,3600.75827,N,12919.15431,E,2.491,139.06,260620,,,A*73
$GNRMC,122650.90,A,3600.75799,N,12919.15413,E,2.796,136.88,260620,,,A*75
$GNRMC,122651.00,A,3600.75784,N,12919.15400,E,2.629,135.90,260620,,,A*7C
$GNRMC,122651.10,A,3600.75794,N,12919.15407,E,2.443,135.61,260620,,,A*7B
$GNRMC,122651.20,A,3600.75798,N,12919.15414,E,2.756,135.42,260620,,,A*70
$GNRMC,122651.30,A,3600.75812,N,12919.15427,E,2.483,135.36,260620,,,A*74
$GNRMC,122651.40,A,3600.75781,N,12919.15401,E,2.320,136.22,260620,,,A*7A
$GNRMC,122651.50,A,3600.75764,N,12919.15392,E,2.739,137.24,260620,,,A*76
$GNRMC,122651.60,A,3600.75729,N,12919.15367,E,2.610,136.56,260620,,,A*78
$GNRMC,122651.70,A,3600.75723,N,12919.15364,E,2.600,138.36,260620,,,A*79
$GNRMC,122651.80,A,3600.75707,N,12919.15353,E,2.595,140.50,260620,,,A*74
$GNRMC,122651.90,A,3600.75709,N,12919.15362,E,2.599,138.15,260620,,,A*7B
$GNRMC,122652.00,A,3600.75665,N,12919.15334,E,2.493,138.04,260620,,,A*72
$GNRMC,122652.10,A,3600.75652,N,12919.15331,E,2.532,137.50,260620,,,A*76
$GNRMC,122652.20,A,3600.75643,N,12919.15331,E,2.387,138.95,260620,,,A*7B
$GNRMC,122652.30,A,3600.75646,N,12919.15342,E,2.533,137.90,260620,,,A*78
$GNRMC,122652.40,A,3600.75630,N,12919.15334,E,2.462,136.89,260620,,,A*73
$GNRMC,122652.50,A,3600.75631,N,12919.15336,E,2.247,138.27,260620,,,A*7A
$GNRMC,122652.60,A,3600.75635,N,12919.15346,E,2.579,136.57,260620,,,A*79
$GNRMC,122652.70,A,3600.75617,N,12919.15339,E,2.707,137.68,260620,,,A*76
$GNRMC,122652.80,A,3600.75618,N,12919.15352,E,2.582,138.30,260620,,,A*76
$GNRMC,122652.90,A,3600.75616,N,12919.15358,E,2.556,139.65,260620,,,A*7B
$GNRMC,122653.00,A,3600.75601,N,12919.15354,E,2.699,138.35,260620,,,A*7D
$GNRMC,122653.10,A,3600.75618,N,12919.15371,E,2.536,139.53,260620,,,A*74
$GNRMC,122653.20,A,3600.75606,N,12919.15368,E,2.739,141.33,260620,,,A*74
$GNRMC,122653.30,A,3600.75591,N,12919.15362,E,2.587,139.78,260620,,,A*75
$GNRMC,122653.40,A,3600.75567,N,12919.15352,E,2.626,140.42,260620,,,A*77
$GNRMC,122653.50,A,3600.75575,N,12919.15365,E,2.563,139.09,260620,,,A*72
$GNRMC,122653.60,A,3600.75569,N,12919.15364,E,2.450,137.19,260620,,,A*73
$GNRMC,122653.70,A,3600.75546,N,12919.15357,E,2.707,136.54,260620,,,A*76
$GNRMC,122653.80,A,3600.75528,N,12919.15350,E,2.519,136.82,260620,,,A*70
$GNRMC,122653.90,A,3600.75518,N,12919.15349,E,2.764,139.97,260620,,,A*79
$GNRMC,122654.00,A,3600.75494,N,12919.15339,E,2.672,140.66,260620,,,A*73
$GNRMC,122654.10,A,3600.75481,N,12919.15337,E,2.695,140.02,260620,,,A*73
$GNRMC,122654.20,A,3600.75470,N,12919.15334,E,2.784,138.65,260620,,,A*72
$GNRMC,122654.30,A,3600.75495,N,12919.15358,E,2.722,139.57,260620,,,A*7E
$GNRMC,122654.40,A,3600.75478,N,12919.15351,E,2.648,141.13,260620,,,A*71
$GNRMC,122654.50,A,3600.75458,N,12919.15346,E,2.917,138.91,260620,,,A*75
$GNRMC,122654.60,A,3600.75429,N,12919.15329,E,2.685,140.20,260620,,,A*78
$GNRMC,122654.70,A,3600.75425,N,12919.15331,E,2.658,142.82,260620,,,A*76
$GNRMC,122654.80,A,3600.75420,N,12919.15331,E,2.824,142.51,260620,,,A*77
$GNRMC,122654.90,A,3600.75407,N,12919.15329,E,2.795,142.05,260620,,,A*7E
$GNRMC,122655.00,A,3600.75393,N,12919.15317,E,2.414,144.01,260620,,,A*79
$GNRMC,122655.10,A,3600.75366,N,12919.15296,E,2.166,143.55,260620,,,A*7C
$GNRMC,122655.20,A,3600.75371,N,12919.15295,E,1.599,150.80,260620,,,A*77
$GNRMC,122655.30,A,3600.75373,N,12919.15287,E,1.207,155.09,260620,,,A*73
$GNRMC,122655.40,A,3600.75372,N,12919.15281,E,1.443,167.61,260620,,,A*7A
$GNRMC,122655.50,A,3600.75364,N,12919.15275,E,1.730,167.06,260620,,,A*71
$GNRMC,122655.60,A,3600.75408,N,12919.15309,E,1.898,163.72,260620,,,A*7F
$GNRMC,122655.90,A,3600.75376,N,12919.15284,E,2.101,155.73,260620,,,A*74
$GNRMC,122656.00,A,3600.75336,N,12919.15257,E,2.395,153.27,260620,,,A*7C
$GNRMC,122656.10,A,3600.75310,N,12919.15238,E,2.261,151.10,260620,,,A*7C
$GNRMC,122656.20,A,3600.75288,N,12919.15223,E,2.136,149.33,260620,,,A*7C
$GNRMC,122656.30,A,3600.75278,N,12919.15211,E,1.699,152.22,260620,,,A*78
$GNRMC,122656.40,A,3600.75272,N,12919.15193,E,1.155,159.47,260620,,,A*73
$GNRMC,122656.50,A,3600.75268,N,12919.15188,E,1.223,165.77,260620,,,A*7D
$GNRMC,122656.60,A,3600.75257,N,12919.15178,E,1.150,166.54,260620,,,A*78
$GNRMC,122656.70,A,3600.75263,N,12919.15185,E,1.318,169.25,260620,,,A*7B
$GNRMC,122656.80,A,3600.75251,N,12919.15179,E,1.756,159.75,260620,,,A*7E
$GNRMC,122656.90,A,3600.75251,N,12919.15183,E,1.664,156.00,260620,,,A*77
$GNRMC,122657.00,A,3600.75263,N,12919.15200,E,2.136,152.71,260620,,,A*77
$GNRMC,122657.10,A,3600.75245,N,12919.15192,E,2.096,147.17,260620,,,A*75
$GNRMC,122657.20,A,3600.75214,N,12919.15176,E,2.106,148.64,260620,,,A*7B
$GNRMC,122657.30,A,3600.75226,N,12919.15194,E,2.153,141.79,260620,,,A*72
$GNRMC,122657.40,A,3600.75218,N,12919.15192,E,2.044,142.93,260620,,,A*7E
$GNRMC,122657.50,A,3600.75213,N,12919.15192,E,1.954,142.26,260620,,,A*71
$GNRMC,122657.60,A,3600.75206,N,12919.15191,E,2.015,142.29,260620,,,A*75
$GNRMC,122657.70,A,3600.75210,N,12919.15199,E,1.770,139.79,260620,,,A*75
$GNRMC,122657.80,A,3600.75182,N,12919.15185,E,1.895,141.86,260620,,,A*74
$GNRMC,122657.90,A,3600.75180,N,12919.15189,E,1.801,138.43,260620,,,A*71
$GNRMC,122658.00,A,3600.75175,N,12919.15189,E,1.852,141.56,260620,,,A*71
$GNRMC,122658.10,A,3600.75152,N,12919.15184,E,2.308,143.21,260620,,,A*7D
$GNRMC,122658.20,A,3600.75159,N,12919.15200,E,2.273,141.46,260620,,,A*74
$GNRMC,122658.30,A,3600.75137,N,12919.15191,E,2.087,141.06,260620,,,A*7B
$GNRMC,122658.40,A,3600.75162,N,12919.15217,E,1.941,142.98,260620,,,A*75
$GNRMC,122658.50,A,3600.75155,N,12919.15221,E,1.959,141.65,260620,,,A*7D
$GNRMC,122658.60,A,3600.75136,N,12919.15213,E,2.121,142.69,260620,,,A*71
$GNRMC,122658.70,A,3600.75123,N,12919.15213,E,2.182,139.08,260620,,,A*76
$GNRMC,122658.80,A,3600.75117,N,12919.15219,E,2.136,137.42,260620,,,A*7B
$GNRMC,122658.90,A,3600.75123,N,12919.15234,E,2.140,136.45,260620,,,A*75
$GNRMC,122659.00,A,3600.75099,N,12919.15225,E,2.019,136.99,260620,,,A*71
$GNRMC,122659.10,A,3600.75111,N,12919.15231,E,1.740,138.16,260620,,,A*75
$GNRMC,122659.20,A,3600.75089,N,12919.15219,E,1.787,140.06,260620,,,A*79
$GNRMC,122659.30,A,3600.75070,N,12919.15218,E,2.161,138.79,260620,,,A*75
$GNRMC,122659.40,A,3600.75070,N,12919.15228,E,2.183,140.84,260620,,,A*70
$GNRMC,122659.50,A,3600.75051,N,12919.15223,E,2.041,138.83,260620,,,A*7E
$GNRMC,122659.60,A,3600.75037,N,12919.15218,E,1.942,139.17,260620,,,A*70
$GNRMC,122659.70,A,3600.75043,N,12919.15232,E,2.100,138.16,260620,,,A*77
$GNRMC,122659.80,A,3600.75055,N,12919.15247,E,2.067,132.01,260620,,,A*71
$GNRMC,122659.90,A,3600.75050,N,12919.15249,E,2.028,131.56,260620,,,A*71
$GNRMC,122700.00,A,3600.75028,N,12919.15241,E,2.004,131.64,260620,,,A*7D
$GNRMC,122700.10,A,3600.75033,N,12919.15254,E,2.094,132.20,260620,,,A*78
$GNRMC,122700.20,A,3600.75022,N,12919.15249,E,1.971,133.78,260620,,,A*7A
$GNRMC,122700.30,A,3600.75018,N,12919.15265,E,2.475,133.37,260620,,,A*7D
$GNRMC,122700.40,A,3600.75014,N,12919.15275,E,2.380,133.14,260620,,,A*7B
$GNRMC,122700.50,A,3600.75005,N,12919.15289,E,2.287,132.24,260620,,,A*7D
$GNRMC,122700.60,A,3600.75003,N,12919.15312,E,1.862,130.65,260620,,,A*7E
$GNRMC,122700.70,A,3600.74995,N,12919.15326,E,2.094,132.04,260620,,,A*78
$GNRMC,122700.80,A,3600.74992,N,12919.15345,E,1.979,125.82,260620,,,A*74
$GNRMC,122700.90,A,3600.74987,N,12919.15359,E,2.315,124.98,260620,,,A*75
$GNRMC,122701.00,A,3600.74981,N,12919.15374,E,2.369,122.75,260620,,,A*7A
$GNRMC,122701.10,A,3600.74973,N,12919.15384,E,2.476,120.50,260620,,,A*75
$GNRMC,122701.20,A,3600.74966,N,12919.15395,E,2.555,116.01,260620,,,A*73
$GNRMC,122701.30,A,3600.74961,N,12919.15404,E,2.457,116.58,260620,,,A*75
$GNRMC,122701.40,A,3600.74954,N,12919.15419,E,2.605,117.42,260620,,,A*77
$GNRMC,122701.50,A,3600.74948,N,12919.15430,E,2.549,119.17,260620,,,A*75
$GNRMC,122701.60,A,3600.74942,N,12919.15444,E,2.841,114.73,260620,,,A*75
$GNRMC,122701.70,A,3600.74936,N,12919.15455,E,2.785,112.99,260620,,,A*72
$GNRMC,122701.80,A,3600.74933,N,12919.15467,E,2.686,110.43,260620,,,A*7E
$GNRMC,122701.90,A,3600.74929,N,12919.15481,E,2.527,107.92,260620,,,A*7E
$GNRMC,122702.00,A,3600.74925,N,12919.15496,E,2.589,107.62,260620,,,A*75
$GNRMC,122702.10,A,3600.74922,N,12919.15509,E,2.429,105.80,260620,,,A*71
$GNRMC,122702.20,A,3600.74920,N,12919.15522,E,2.303,101.78,260620,,,A*75
$GNRMC,122702.30,A,3600.74915,N,12919.15537,E,2.265,98.25,260620,,,A*4E
$GNRMC,122702.40,A,3600.74909,N,12919.15554,E,2.539,98.47,260620,,,A*4B
$GNRMC,122702.50,A,3600.74905,N,12919.15565,E,2.507,99.01,260620,,,A*4A
$GNRMC,122702.60,A,3600.74904,N,12919.15578,E,2.367,100.08,260620,,,A*7C
$GNRMC,122702.70,A,3600.74903,N,12919.15594,E,2.801,99.55,260620,,,A*4A
$GNRMC,122702.80,A,3600.74900,N,12919.15607,E,2.848,98.05,260620,,,A*46
$GNRMC,122702.90,A,3600.74895,N,12919.15622,E,2.745,99.72,260620,,,A*4E
$GNRMC,122703.00,A,3600.74893,N,12919.15636,E,2.732,97.33,260620,,,A*4E
$GNRMC,122703.10,A,3600.74889,N,12919.15651,E,2.679,95.43,260620,,,A*4E
$GNRMC,122703.20,A,3600.74887,N,12919.15662,E,2.625,94.64,260620,,,A*4E
$GNRMC,122703.30,A,3600.74884,N,12919.15673,E,2.481,94.49,260620,,,A*4F
$GNRMC,122703.40,A,3600.74883,N,12919.15679,E,2.207,93.09,260620,,,A*4E
$GNRMC,122703.50,A,3600.74882,N,12919.15688,E,2.452,89.56,260620,,,A*47
$GNRMC,122703.60,A,3600.74884,N,12919.15697,E,2.557,86.94,260620,,,A*49
$GNRMC,122703.70,A,3600.74883,N,12919.15712,E,2.583,85.17,260620,,,A*42
$GNRMC,122703.80,A,3600.74883,N,12919.15727,E,2.798,82.17,260620,,,A*44
$GNRMC,122703.90,A,3600.74884,N,12919.15735,E,2.066,80.08,260620,,,A*4B
$GNRMC,122704.00,A,3600.74884,N,12919.15746,E,2.425,78.66,260620,,,A*4D
$GNRMC,122704.10,A,3600.74886,N,12919.15754,E,2.239,75.12,260620,,,A*48
$GNRMC,122704.20,A,3600.74887,N,12919.15765,E,2.564,73.31,260620,,,A*40
$GNRMC,122704.30,A,3600.74887,N,12919.15775,E,2.379,75.85,260620,,,A*43
$GNRMC,122704.40,A,3600.74887,N,12919.15788,E,2.613,76.83,260620,,,A*4A
$GNRMC,122704.50,A,3600.74891,N,12919.15800,E,2.520,77.30,260620,,,A*49
$GNRMC,122704.60,A,3600.74892,N,12919.15815,E,2.695,74.45,260620,,,A*41
$GNRMC,122704.70,A,3600.74896,N,12919.15825,E,2.457,70.32,260620,,,A*4F
$GNRMC,122704.80,A,3600.74896,N,12919.15846,E,2.834,73.04,260620,,,A*4A
$GNRMC,122704.90,A,3600.74896,N,12919.15861,E,2.783,74.20,260620,,,A*4C
$GNRMC,122705.00,A,3600.74898,N,12919.15873,E,2.538,74.74,260620,,,A*4A
$GNRMC,122705.10,A,3600.74899,N,12919.15887,E,2.629,72.99,260620,,,A*47
$GNRMC,122705.20,A,3600.74897,N,12919.15898,E,2.196,74.72,260620,,,A*44
$GNRMC,122705.30,A,3600.74898,N,12919.15915,E,2.947,76.58,260620,,,A*40
$GNRMC,122705.40,A,3600.74900,N,12919.15929,E,2.992,74.95,260620,,,A*43
$GNRMC,122705.50,A,3600.74901,N,12919.15945,E,3.146,73.56,260620,,,A*41
$GNRMC,122705.60,A,3600.74902,N,12919.15958,E,3.162,73.42,260620,,,A*4E
$GNRMC,122705.70,A,3600.74905,N,12919.15969,E,2.997,73.70,260620,,,A*48
$GNRMC,122705.80,A,3600.74909,N,12919.15982,E,2.948,71.50,260620,,,A*4C
$GNRMC,122705.90,A,3600.74913,N,12919.15992,E,2.773,66.94,260620,,,A*4F
$GNRMC,122706.00,A,3600.74917,N,12919.16004,E,2.732,64.69,260620,,,A*41
$GNRMC,122706.10,A,3600.74920,N,12919.16015,E,2.798,63.03,260620,,,A*4F
$GNRMC,122706.20,A,3600.74921,N,12919.16025,E,2.779,61.41,260620,,,A*45
$GNRMC,122706.30,A,3600.74925,N,12919.16033,E,2.718,58.13,260620,,,A*4D
$GNRMC,122706.40,A,3600.74927,N,12919.16038,E,2.276,59.65,260620,,,A*4E
$GNRMC,122706.50,A,3600.74930,N,12919.16047,E,2.336,60.67,260620,,,A*4C
$GNRMC,122706.60,A,3600.74935,N,12919.16054,E,2.607,51.83,260620,,,A*47
$GNRMC,122706.70,A,3600.74938,N,12919.16066,E,2.651,49.83,260620,,,A*40
$GNRMC,122706.80,A,3600.74940,N,12919.16073,E,2.519,48.82,260620,,,A*4B
$GNRMC,122706.90,A,3600.74945,N,12919.16082,E,2.828,47.99,260620,,,A*4B
$GNRMC,122707.00,A,3600.74950,N,12919.16091,E,2.904,48.23,260620,,,A*44
$GNRMC,122707.10,A,3600.74955,N,12919.16100,E,2.847,48.97,260620,,,A*40
$GNRMC,122707.20,A,3600.74962,N,12919.16109,E,3.201,49.95,260620,,,A*44
$GNRMC,122707.30,A,3600.74966,N,12919.16116,E,2.774,48.78,260620,,,A*4B
$GNRMC,122707.40,A,3600.74972,N,12919.16127,E,3.100,49.25,260620,,,A*46
$GNRMC,122707.50,A,3600.74977,N,12919.16133,E,2.898,48.35,260620,,,A*4E
$GNRMC,122707.60,A,3600.74983,N,12919.16139,E,2.747,45.14,260620,,,A*4F
$GNRMC,122707.70,A,3600.74989,N,12919.16145,E,2.695,40.98,260620,,,A*40
$GNRMC,122707.80,A,3600.74992,N,12919.16153,E,2.577,41.29,260620,,,A*46
$GNRMC,122707.90,A,3600.74997,N,12919.16162,E,3.168,42.61,260620,,,A*44
$GNRMC,122708.00,A,3600.75001,N,12919.16170,E,2.938,45.63,260620,,,A*4F
$GNRMC,122708.10,A,3600.75008,N,12919.16179,E,2.906,48.32,260620,,,A*4A
$GNRMC,122708.20,A,3600.75016,N,12919.16183,E,2.946,45.01,260620,,,A*4A
$GNRMC,122708.30,A,3600.75023,N,12919.16186,E,2.746,40.92,260620,,,A*49
$GNRMC,122708.40,A,3600.75027,N,12919.16188,E,2.563,37.21,260620,,,A*49
$GNRMC,122708.50,A,3600.75035,N,12919.16194,E,2.823,33.71,260620,,,A*4E
$GNRMC,122708.60,A,3600.75043,N,12919.16194,E,2.277,33.32,260620,,,A*40
$GNRMC,122708.70,A,3600.75053,N,12919.16201,E,2.601,34.96,260620,,,A*43
$GNRMC,122708.80,A,3600.75060,N,12919.16206,E,2.603,36.65,260620,,,A*47
$GNRMC,122708.90,A,3600.75070,N,12919.16207,E,2.242,32.48,260620,,,A*4C
$GNRMC,122709.00,A,3600.75077,N,12919.16216,E,2.788,35.73,260620,,,A*4F
$GNRMC,122709.10,A,3600.75082,N,12919.16228,E,2.834,44.05,260620,,,A*46
$GNRMC,122709.20,A,3600.75086,N,12919.16239,E,3.109,50.48,260620,,,A*4B
$GNRMC,122709.30,A,3600.75087,N,12919.16244,E,3.040,50.19,260620,,,A*49
$GNRMC,122709.40,A,3600.75090,N,12919.16247,E,2.629,48.73,260620,,,A*46
$GNRMC,122709.50,A,3600.75095,N,12919.16255,E,2.832,48.74,260620,,,A*42
$GNRMC,122709.60,A,3600.75100,N,12919.16265,E,2.987,52.54,260620,,,A*49
$GNRMC,122709.70,A,3600.75107,N,12919.16272,E,2.903,51.77,260620,,,A*47
$GNRMC,122709.80,A,3600.75114,N,12919.16277,E,2.856,49.80,260620,,,A*4F
$GNRMC,122709.90,A,3600.75119,N,12919.16282,E,2.660,48.29,260620,,,A*40
$GNRMC,122710.00,A,3600.75123,N,12919.16290,E,2.630,48.66,260620,,,A*45
$GNRMC,122710.20,A,3600.75137,N,12919.16308,E,2.847,50.68,260620,,,A*4B
$GNRMC,122710.30,A,3600.75145,N,12919.16314,E,2.655,51.52,260620,,,A*47
$GNRMC,122710.40,A,3600.75151,N,12919.16319,E,2.672,51.02,260620,,,A*48
$GNRMC,122710.50,A,3600.75154,N,12919.16326,E,2.510,53.07,260620,,,A*40
$GNRMC,122710.60,A,3600.75157,N,12919.16333,E,2.589,56.28,260620,,,A*4C
$GNRMC,122710.70,A,3600.75162,N,12919.16338,E,2.588,53.51,260620,,,A*4A
$GNRMC,122710.80,A,3600.75168,N,12919.16340,E,2.896,55.90,260620,,,A*49
$GNRMC,122710.90,A,3600.75172,N,12919.16345,E,2.615,56.13,260620,,,A*4B
$GNRMC,122711.00,A,3600.75175,N,12919.16351,E,2.282,56.44,260620,,,A*49
$GNRMC,122711.10,A,3600.75179,N,12919.16358,E,2.638,57.57,260620,,,A*4B
$GNRMC,122711.20,A,3600.75182,N,12919.16367,E,2.923,60.54,260620,,,A*42
$GNRMC,122711.30,A,3600.75186,N,12919.16375,E,3.072,60.86,260620,,,A*47
$GNRMC,122711.40,A,3600.75193,N,12919.16378,E,2.880,55.77,260620,,,A*45
$GNRMC,122711.60,A,3600.75200,N,12919.16389,E,2.512,53.91,260620,,,A*48
$GNRMC,122711.70,A,3600.75205,N,12919.16393,E,2.620,51.50,260620,,,A*4A
$GNRMC,122711.80,A,3600.75211,N,12919.16399,E,2.612,49.04,260620,,,A*43
$GNRMC,122711.90,A,3600.75216,N,12919.16409,E,2.794,49.00,260620,,,A*40
$GNRMC,122712.00,A,3600.75221,N,12919.16412,E,2.329,47.62,260620,,,A*4C
$GNRMC,122712.10,A,3600.75225,N,12919.16419,E,2.370,48.44,260620,,,A*45
$GNRMC,122712.20,A,3600.75229,N,12919.16426,E,2.572,50.38,260620,,,A*40
$GNRMC,122712.30,A,3600.75235,N,12919.16433,E,2.704,48.49,260620,,,A*44
$GNRMC,122712.40,A,3600.75239,N,12919.16447,E,2.902,51.31,260620,,,A*43
$GNRMC,122712.50,A,3600.75244,N,12919.16458,E,2.930,50.17,260620,,,A*42
$GNRMC,122712.60,A,3600.75248,N,12919.16467,E,2.720,51.45,260620,,,A*48
$GNRMC,122712.70,A,3600.75252,N,12919.16470,E,2.443,50.70,260620,,,A*45
$GNRMC,122712.80,A,3600.75259,N,12919.16477,E,2.744,46.77,260620,,,A*42
$GNRMC,122712.90,A,3600.75264,N,12919.16482,E,2.615,44.32,260620,,,A*41
$GNRMC,122713.00,A,3600.75269,N,12919.16490,E,2.679,42.68,260620,,,A*44
$GNRMC,122713.10,A,3600.75274,N,12919.16500,E,2.677,43.57,260620,,,A*42
$GNRMC,122713.20,A,3600.75279,N,12919.16504,E,2.522,44.02,260620,,,A*4C
$GNRMC,122713.30,A,3600.75283,N,12919.16513,E,2.590,46.32,260620,,,A*46
$GNRMC,122713.40,A,3600.75289,N,12919.16517,E,2.673,46.12,260620,,,A*43
$GNRMC,122713.50,A,3600.75295,N,12919.16526,E,2.841,45.81,260620,,,A*4B
$GNRMC,122713.60,A,3600.75299,N,12919.16532,E,2.530,44.46,260620,,,A*40
$GNRMC,122713.70,A,3600.75304,N,12919.16539,E,2.522,45.04,260620,,,A*4B
$GNRMC,122713.80,A,3600.75310,N,12919.16544,E,2.641,43.50,260620,,,A*4A
$GNRMC,122713.90,A,3600.75315,N,12919.16551,E,2.684,45.04,260620,,,A*44
$GNRMC,122714.00,A,3600.75322,N,12919.16556,E,2.773,44.38,260620,,,A*4E
$GNRMC,122714.10,A,3600.75328,N,12919.16561,E,2.597,43.17,260620,,,A*43
$GNRMC,122714.20,A,3600.75333,N,12919.16567,E,2.497,42.97,260620,,,A*44
$GNRMC,122714.30,A,3600.75337,N,12919.16572,E,2.365,46.94,260620,,,A*48
$GNRMC,122714.40,A,3600.75342,N,12919.16577,E,2.368,48.39,260620,,,A*4C
$GNRMC,122714.50,A,3600.75349,N,12919.16581,E,2.646,48.77,260620,,,A*4C
$GNRMC,122714.60,A,3600.75354,N,12919.16585,E,2.521,48.09,260620,,,A*4C
$GNRMC,122714.70,A,3600.75359,N,12919.16590,E,2.616,49.73,260620,,,A*4F
$GNRMC,122714.80,A,3600.75364,N,12919.16594,E,2.388,51.17,260620,,,A*43
$GNRMC,122714.90,A,3600.75369,N,12919.16598,E,2.521,49.73,260620,,,A*4D
$GNRMC,122715.00,A,3600.75375,N,12919.16603,E,2.575,47.02,260620,,,A*40
$GNRMC,122715.10,A,3600.75380,N,12919.16608,E,2.567,46.07,260620,,,A*47
$GNRMC,122715.20,A,3600.75385,N,12919.16613,E,2.617,47.36,260620,,,A*4C
$GNRMC,122715.30,A,3600.75391,N,12919.16619,E,2.586,46.94,260620,,,A*40
$GNRMC,122715.40,A,3600.75394,N,12919.16626,E,2.545,50.02,260620,,,A*49
$GNRMC,122715.50,A,3600.75400,N,12919.16631,E,2.614,50.15,260620,,,A*45
$GNRMC,122715.60,A,3600.75405,N,12919.16638,E,2.770,53.06,260620,,,A*48
$GNRMC,122715.70,A,3600.75410,N,12919.16650,E,3.008,57.04,260620,,,A*4C
$GNRMC,122715.80,A,3600.75415,N,12919.16652,E,2.814,55.28,260620,,,A*4C
$GNRMC,122715.90,A,3600.75420,N,12919.16656,E,2.374,52.41,260620,,,A*4A
$GNRMC,122716.00,A,3600.75424,N,12919.16665,E,2.548,51.30,260620,,,A*48
$GNRMC,122716.10,A,3600.75429,N,12919.16675,E,3.007,52.64,260620,,,A*48
$GNRMC,122716.20,A,3600.75434,N,12919.16684,E,3.036,53.35,260620,,,A*4E
$GNRMC,122716.30,A,3600.75437,N,12919.16692,E,2.723,53.95,260620,,,A*43
$GNRMC,122716.40,A,3600.75443,N,12919.16696,E,2.527,51.36,260620,,,A*4E
$GNRMC,122716.50,A,3600.75447,N,12919.16704,E,2.646,51.46,260620,,,A*42
$GNRMC,122716.60,A,3600.75451,N,12919.16713,E,2.600,50.48,260620,,,A*4D
$GNRMC,122716.70,A,3600.75456,N,12919.16721,E,2.837,51.50,260620,,,A*48
$GNRMC,122716.80,A,3600.75460,N,12919.16730,E,2.825,53.56,260620,,,A*45
$GNRMC,122716.90,A,3600.75466,N,12919.16736,E,2.636,51.20,260620,,,A*4B
$GNRMC,122717.00,A,3600.75471,N,12919.16741,E,2.475,47.23,260620,,,A*44
$GNRMC,122717.20,A,3600.75479,N,12919.16757,E,2.635,49.10,260620,,,A*41
$GNRMC,122717.30,A,3600.75484,N,12919.16764,E,2.767,48.33,260620,,,A*44
$GNRMC,122717.40,A,3600.75489,N,12919.16771,E,2.617,48.11,260620,,,A*4C
$GNRMC,122717.50,A,3600.75492,N,12919.16777,E,2.301,47.63,260620,,,A*49
$GNRMC,122717.60,A,3600.75496,N,12919.16784,E,2.414,48.77,260620,,,A*4B
$GNRMC,122717.70,A,3600.75500,N,12919.16793,E,2.606,50.27,260620,,,A*4F
$GNRMC,122717.80,A,3600.75505,N,12919.16801,E,2.657,49.48,260620,,,A*44
$GNRMC,122717.90,A,3600.75509,N,12919.16806,E,2.465,48.29,260620,,,A*4B
$GNRMC,122718.00,A,3600.75513,N,12919.16814,E,2.415,48.58,260620,,,A*44
$GNRMC,122718.10,A,3600.75518,N,12919.16818,E,2.323,46.89,260620,,,A*42
$GNRMC,122718.20,A,3600.75523,N,12919.16823,E,2.550,45.94,260620,,,A*4C
$GNRMC,122718.30,A,3600.75528,N,12919.16830,E,2.698,45.70,260620,,,A*49
$GNRMC,122718.40,A,3600.75533,N,12919.16842,E,2.988,50.46,260620,,,A*4E
$GNRMC,122718.60,A,3600.75543,N,12919.16853,E,2.733,49.93,260620,,,A*45
$GNRMC,122718.70,A,3600.75548,N,12919.16857,E,2.508,48.40,260620,,,A*4E
$GNRMC,122718.80,A,3600.75554,N,12919.16864,E,2.700,45.48,260620,,,A*43
$GNRMC,122718.90,A,3600.75559,N,12919.16873,E,2.888,49.10,260620,,,A*47
$GNRMC,122719.00,A,3600.75564,N,12919.16879,E,2.741,50.36,260620,,,A*4D
$GNRMC,122719.10,A,3600.75568,N,12919.16886,E,2.557,48.93,260620,,,A*43
$GNRMC,122719.20,A,3600.75574,N,12919.16891,E,2.625,43.95,260620,,,A*40
$GNRMC,122719.30,A,3600.75579,N,12919.16898,E,2.510,44.61,260620,,,A*4C
$GNRMC,122719.40,A,3600.75584,N,12919.16904,E,2.490,45.34,260620,,,A*45
$GNRMC,122719.50,A,3600.75590,N,12919.16911,E,2.799,43.94,260620,,,A*43
$GNRMC,122719.60,A,3600.75595,N,12919.16916,E,2.393,45.08,260620,,,A*4F
$GNRMC,122719.70,A,3600.75601,N,12919.16917,E,2.273,43.20,260620,,,A*42
$GNRMC,122719.80,A,3600.75605,N,12919.16924,E,2.213,44.96,260620,,,A*45
$GNRMC,122719.90,A,3600.75608,N,12919.16931,E,2.280,49.10,260620,,,A*44
$GNRMC,122720.00,A,3600.75614,N,12919.16939,E,2.731,48.48,260620,,,A*41
$GNRMC,122720.10,A,3600.75618,N,12919.16947,E,2.631,48.71,260620,,,A*4E
$GNRMC,122720.20,A,3600.75624,N,12919.16953,E,2.550,44.95,260620,,,A*45
$GNRMC,122720.30,A,3600.75628,N,12919.16961,E,2.414,44.91,260620,,,A*4C
$GNRMC,122720.40,A,3600.75632,N,12919.16967,E,2.498,45.43,260620,,,A*4C
$GNRMC,122720.50,A,3600.75637,N,12919.16974,E,2.556,44.75,260620,,,A*4D
$GNRMC,122720.60,A,3600.75642,N,12919.16985,E,2.816,48.60,260620,,,A*43
$GNRMC,122720.70,A,3600.75647,N,12919.16990,E,2.574,50.48,260620,,,A*49
$GNRMC,122720.80,A,3600.75651,N,12919.16995,E,2.351,48.77,260620,,,A*40
$GNRMC,122720.90,A,3600.75656,N,12919.17003,E,2.582,49.19,260620,,,A*40
$GNRMC,122721.00,A,3600.75658,N,12919.17010,E,2.204,51.02,260620,,,A*4E
$GNRMC,122721.10,A,3600.75663,N,12919.17019,E,2.627,54.03,260620,,,A*4F
$GNRMC,122721.20,A,3600.75667,N,12919.17027,E,2.752,56.31,260620,,,A*45
$GNRMC,122721.30,A,3600.75671,N,12919.17035,E,2.773,56.98,260620,,,A*40
$GNRMC,122721.40,A,3600.75676,N,12919.17040,E,2.585,54.41,260620,,,A*4F
$GNRMC,122721.50,A,3600.75681,N,12919.17044,E,2.419,49.30,260620,,,A*4C
$GNRMC,122721.60,A,3600.75687,N,12919.17052,E,2.735,46.94,260620,,,A*42
$GNRMC,122721.70,A,3600.75691,N,12919.17062,E,2.987,51.30,260620,,,A*48
$GNRMC,122721.80,A,3600.75697,N,12919.17066,E,2.719,50.93,260620,,,A*44
$GNRMC,122721.90,A,3600.75703,N,12919.17071,E,2.678,45.95,260620,,,A*4B
$GNRMC,122722.00,A,3600.75707,N,12919.17077,E,2.356,47.41,260620,,,A*41
$GNRMC,122722.10,A,3600.75711,N,12919.17082,E,2.296,48.07,260620,,,A*4D
$GNRMC,122722.20,A,3600.75716,N,12919.17091,E,2.799,50.57,260620,,,A*4D
$GNRMC,122722.30,A,3600.75721,N,12919.17099,E,2.671,49.18,260620,,,A*44
$GNRMC,122722.40,A,3600.75727,N,12919.17105,E,2.656,46.03,260620,,,A*41
$GNRMC,122722.50,A,3600.75733,N,12919.17112,E,2.799,44.75,260620,,,A*42
$GNRMC,122722.60,A,3600.75737,N,12919.17119,E,2.655,46.12,260620,,,A*4C
$GNRMC,122722.70,A,3600.75743,N,12919.17124,E,2.632,45.18,260620,,,A*48
$GNRMC,122722.80,A,3600.75748,N,12919.17132,E,2.799,44.87,260620,,,A*4C
$GNRMC,122722.90,A,3600.75753,N,12919.17139,E,2.672,43.85,260620,,,A*4D
$GNRMC,122723.00,A,3600.75758,N,12919.17144,E,2.465,43.34,260620,,,A*4A
$GNRMC,122723.10,A,3600.75762,N,12919.17151,E,2.493,45.64,260620,,,A*4C
$GNRMC,122723.20,A,3600.75765,N,12919.17162,E,2.568,49.49,260620,,,A*4E
$GNRMC,122723.30,A,3600.75769,N,12919.17169,E,2.440,51.91,260620,,,A*4F
$GNRMC,122723.40,A,3600.75775,N,12919.17180,E,2.951,52.58,260620,,,A*49
$GNRMC,122723.50,A,3600.75779,N,12919.17188,E,2.747,50.94,260620,,,A*47
$GNRMC,122723.60,A,3600.75783,N,12919.17196,E,2.469,49.93,260620,,,A*4E
$GNRMC,122723.70,A,3600.75788,N,12919.17204,E,2.642,49.37,260620,,,A*49
$GNRMC,122723.80,A,3600.75794,N,12919.17212,E,2.724,48.67,260620,,,A*49
$GNRMC,122723.90,A,3600.75799,N,12919.17220,E,2.780,49.63,260620,,,A*4F
$GNRMC,122724.00,A,3600.75804,N,12919.17228,E,2.687,48.91,260620,,,A*48
$GNRMC,122724.10,A,3600.75809,N,12919.17234,E,2.489,48.02,260620,,,A*4F
$GNRMC,122724.20,A,3600.75813,N,12919.17241,E,2.389,50.98,260620,,,A*48
$GNRMC,122724.30,A,3600.75817,N,12919.17252,E,2.606,49.81,260620,,,A*4D
$GNRMC,122724.40,A,3600.75821,N,12919.17261,E,2.684,51.85,260620,,,A*48
$GNRMC,122724.50,A,3600.75826,N,12919.17265,E,2.506,52.20,260620,,,A*4F
$GNRMC,122724.60,A,3600.75830,N,12919.17272,E,2.479,53.40,260620,,,A*43
$GNRMC,122724.70,A,3600.75836,N,12919.17273,E,2.653,52.06,260620,,,A*4C
$GNRMC,122724.80,A,3600.75841,N,12919.17276,E,2.396,52.00,260620,,,A*4C
$GNRMC,122724.90,A,3600.75846,N,12919.17282,E,2.669,52.54,260620,,,A*45
$GNRMC,122725.00,A,3600.75851,N,12919.17286,E,2.620,51.71,260620,,,A*46
$GNRMC,122725.10,A,3600.75856,N,12919.17291,E,2.527,50.59,260620,,,A*49
$GNRMC,122725.20,A,3600.75859,N,12919.17297,E,2.424,52.18,260620,,,A*46
$GNRMC,122725.30,A,3600.75863,N,12919.17302,E,2.455,54.19,260620,,,A*42
$GNRMC,122725.40,A,3600.75868,N,12919.17309,E,2.708,51.80,260620,,,A*4B
$GNRMC,122725.50,A,3600.75872,N,12919.17317,E,2.661,53.96,260620,,,A*45
$GNRMC,122725.60,A,3600.75876,N,12919.17323,E,2.504,56.20,260620,,,A*4D
$GNRMC,122725.70,A,3600.75881,N,12919.17331,E,2.667,55.18,260620,,,A*49
$GNRMC,122725.80,A,3600.75886,N,12919.17337,E,2.795,52.80,260620,,,A*4D
$GNRMC,122725.90,A,3600.75890,N,12919.17343,E,2.522,53.72,260620,,,A*4A
$GNRMC,122726.00,A,3600.75895,N,12919.17348,E,2.583,53.71,260620,,,A*46
$GNRMC,122726.10,A,3600.75901,N,12919.17352,E,2.671,51.03,260620,,,A*49
$GNRMC,122726.20,A,3600.75906,N,12919.17357,E,2.577,52.54,260620,,,A*4C
$GNRMC,122726.30,A,3600.75910,N,12919.17364,E,2.527,51.69,260620,,,A*42
$GNRMC,122726.40,A,3600.75914,N,12919.17372,E,2.546,53.61,260620,,,A*4B
$GNRMC,122726.50,A,3600.75920,N,12919.17378,E,2.599,51.09,260620,,,A*49
$GNRMC,122726.60,A,3600.75924,N,12919.17387,E,2.656,52.46,260620,,,A*46
$GNRMC,122726.70,A,3600.75929,N,12919.17394,E,2.758,51.98,260620,,,A*47
$GNRMC,122726.80,A,3600.75934,N,12919.17402,E,2.728,52.62,260620,,,A*4D
$GNRMC,122726.90,A,3600.75938,N,12919.17410,E,2.643,49.49,260620,,,A*4C
$GNRMC,122727.00,A,3600.75945,N,12919.17416,E,2.826,48.44,260620,,,A*49
$GNRMC,122727.10,A,3600.75949,N,12919.17424,E,2.788,47.71,260620,,,A*47
$GNRMC,122727.20,A,3600.75955,N,12919.17430,E,2.659,46.89,260620,,,A*47
$GNRMC,122727.30,A,3600.75960,N,12919.17439,E,2.785,47.80,260620,,,A*41
$GNRMC,122727.40,A,3600.75963,N,12919.17447,E,2.526,49.52,260620,,,A*46
$GNRMC,122727.50,A,3600.75968,N,12919.17452,E,2.479,50.28,260620,,,A*46
$GNRMC,122727.60,A,3600.75973,N,12919.17460,E,2.709,49.31,260620,,,A*4A
$GNRMC,122727.70,A,3600.75978,N,12919.17468,E,2.772,49.99,260620,,,A*46
$GNRMC,122727.80,A,3600.75983,N,12919.17475,E,2.854,51.72,260620,,,A*46
$GNRMC,122727.90,A,3600.75989,N,12919.17481,E,2.760,50.11,260620,,,A*4A
$GNRMC,122728.00,A,3600.75993,N,12919.17487,E,2.593,47.89,260620,,,A*48
$GNRMC,122728.10,A,3600.75998,N,12919.17495,E,2.749,49.32,260620,,,A*4A
$GNRMC,122728.20,A,3600.76004,N,12919.17502,E,2.828,48.46,260620,,,A*43
$GNRMC,122728.30,A,3600.76009,N,12919.17510,E,2.834,46.42,260620,,,A*4B
$GNRMC,122728.40,A,3600.76014,N,12919.17516,E,2.662,47.14,260620,,,A*49
$GNRMC,122728.50,A,3600.76018,N,12919.17524,E,2.641,48.80,260620,,,A*46
$GNRMC,122728.60,A,3600.76023,N,12919.17531,E,2.650,50.36,260620,,,A*4D
$GNRMC,122728.70,A,3600.76027,N,12919.17539,E,2.665,48.49,260620,,,A*47
$GNRMC,122728.80,A,3600.76031,N,12919.17548,E,2.683,50.16,260620,,,A*42
$GNRMC,122728.90,A,3600.76037,N,12919.17554,E,2.733,48.80,260620,,,A*44
$GNRMC,122729.00,A,3600.76041,N,12919.17563,E,2.811,49.41,260620,,,A*4A
$GNRMC,122729.10,A,3600.76046,N,12919.17569,E,2.678,47.75,260620,,,A*4E
$GNRMC,122729.20,A,3600.76052,N,12919.17577,E,2.850,50.51,260620,,,A*43
$GNRMC,122729.30,A,3600.76056,N,12919.17585,E,2.742,49.73,260620,,,A*4F
$GNRMC,122729.40,A,3600.76061,N,12919.17592,E,2.679,50.73,260620,,,A*4B
$GNRMC,122729.50,A,3600.76065,N,12919.17600,E,2.662,50.96,260620,,,A*47
$GNRMC,122729.60,A,3600.76070,N,12919.17608,E,2.715,52.74,260620,,,A*47
$GNRMC,122729.70,A,3600.76074,N,12919.17615,E,2.656,53.15,260620,,,A*4E
$GNRMC,122729.80,A,3600.76078,N,12919.17623,E,2.534,51.03,260620,,,A*4A
$GNRMC,122729.90,A,3600.76083,N,12919.17632,E,2.805,52.59,260620,,,A*4C
$GNRMC,122730.00,A,3600.76088,N,12919.17639,E,2.772,51.67,260620,,,A*4C
$GNRMC,122730.10,A,3600.76093,N,12919.17649,E,2.712,50.53,260620,,,A*40
$GNRMC,122730.20,A,3600.76096,N,12919.17657,E,2.521,50.94,260620,,,A*40
$GNRMC,122730.30,A,3600.76101,N,12919.17664,E,2.506,49.18,260620,,,A*47
$GNRMC,122730.40,A,3600.76106,N,12919.17673,E,2.698,48.26,260620,,,A*49
$GNRMC,122730.50,A,3600.76109,N,12919.17685,E,2.598,47.56,260620,,,A*45
$GNRMC,122730.60,A,3600.76114,N,12919.17696,E,2.531,45.50,260620,,,A*4F
$GNRMC,122730.70,A,3600.76117,N,12919.17708,E,2.503,48.32,260620,,,A*43
$GNRMC,122730.80,A,3600.76121,N,12919.17718,E,2.507,47.18,260620,,,A*4B
$GNRMC,122730.90,A,3600.76125,N,12919.17731,E,2.699,49.16,260620,,,A*41
$GNRMC,122731.00,A,3600.76128,N,12919.17741,E,2.536,50.01,260620,,,A*4B
$GNRMC,122731.10,A,3600.76131,N,12919.17753,E,2.489,51.94,260620,,,A*49
$GNRMC,122731.20,A,3600.76136,N,12919.17763,E,2.782,49.92,260620,,,A*49
$GNRMC,122731.30,A,3600.76139,N,12919.17772,E,2.600,50.79,260620,,,A*41
$GNRMC,122731.40,A,3600.76144,N,12919.17780,E,2.604,49.79,260620,,,A*4D
$GNRMC,122731.50,A,3600.76151,N,12919.17789,E,2.880,48.93,260620,,,A*46
$GNRMC,122731.60,A,3600.76158,N,12919.17797,E,2.923,46.57,260620,,,A*4D
$GNRMC,122731.70,A,3600.76163,N,12919.17805,E,2.683,47.59,260620,,,A*4A
$GNRMC,122731.80,A,3600.76167,N,12919.17813,E,2.598,49.27,260620,,,A*48
$GNRMC,122731.90,A,3600.76172,N,12919.17821,E,2.565,50.00,260620,,,A*43
$GNRMC,122732.00,A,3600.76175,N,12919.17831,E,2.601,51.26,260620,,,A*4B
$GNRMC,122732.10,A,3600.76179,N,12919.17840,E,2.640,51.79,260620,,,A*4F
$GNRMC,122732.20,A,3600.76184,N,12919.17850,E,2.661,53.17,260620,,,A*46
$GNRMC,122732.30,A,3600.76188,N,12919.17860,E,2.685,51.16,260620,,,A*41
$GNRMC,122732.40,A,3600.76193,N,12919.17868,E,2.725,51.52,260620,,,A*4F
$GNRMC,122732.50,A,3600.76196,N,12919.17878,E,2.681,53.42,260620,,,A*46
$GNRMC,122732.60,A,3600.76201,N,12919.17886,E,2.760,51.27,260620,,,A*46
$GNRMC,122732.70,A,3600.76206,N,12919.17894,E,2.778,49.74,260620,,,A*45
$GNRMC,122732.80,A,3600.76210,N,12919.17902,E,2.741,51.61,260620,,,A*44
$GNRMC,122732.90,A,3600.76214,N,12919.17908,E,2.596,53.67,260620,,,A*47
$GNRMC,122733.00,A,3600.76218,N,12919.17916,E,2.714,51.79,260620,,,A*49
$GNRMC,122733.10,A,3600.76222,N,12919.17923,E,2.499,52.69,260620,,,A*43
$GNRMC,122733.20,A,3600.76227,N,12919.17932,E,2.811,54.71,260620,,,A*46
$GNRMC,122733.30,A,3600.76232,N,12919.17939,E,2.949,52.13,260620,,,A*46
$GNRMC,122733.40,A,3600.76235,N,12919.17944,E,2.378,49.39,260620,,,A*46
$GNRMC,122733.50,A,3600.76240,N,12919.17952,E,2.619,49.16,260620,,,A*4D
$GNRMC,122733.60,A,3600.76245,N,12919.17959,E,2.823,48.11,260620,,,A*41
$GNRMC,122733.70,A,3600.76249,N,12919.17968,E,2.924,48.56,260620,,,A*4B
$GNRMC,122733.80,A,3600.76254,N,12919.17976,E,2.797,48.31,260620,,,A*40
$GNRMC,122733.90,A,3600.76258,N,12919.17984,E,2.715,48.53,260620,,,A*4E
$GNRMC,122734.00,A,3600.76262,N,12919.17991,E,2.653,49.24,260620,,,A*4F
$GNRMC,122734.10,A,3600.76266,N,12919.17998,E,2.548,48.69,260620,,,A*42
$GNRMC,122734.20,A,3600.76271,N,12919.18007,E,2.891,48.76,260620,,,A*40
$GNRMC,122734.30,A,3600.76276,N,12919.18017,E,2.938,53.51,260620,,,A*4A
$GNRMC,122734.40,A,3600.76282,N,12919.18020,E,2.677,48.95,260620,,,A*44
$GNRMC,122734.50,A,3600.76287,N,12919.18024,E,2.438,44.34,260620,,,A*4A
$GNRMC,122734.60,A,3600.76292,N,12919.18032,E,2.670,45.69,260620,,,A*4D
$GNRMC,122734.70,A,3600.76298,N,12919.18040,E,2.909,46.41,260620,,,A*4B
$GNRMC,122734.80,A,3600.76303,N,12919.18047,E,2.805,46.75,260620,,,A*4A
$GNRMC,122734.90,A,3600.76309,N,12919.18055,E,2.861,47.94,260620,,,A*4E
$GNRMC,122735.00,A,3600.76314,N,12919.18062,E,2.781,47.58,260620,,,A*4F
$GNRMC,122735.10,A,3600.76318,N,12919.18070,E,2.634,51.67,260620,,,A*45
$GNRMC,122735.20,A,3600.76322,N,12919.18078,E,2.630,50.69,260620,,,A*4C
$GNRMC,122735.30,A,3600.76327,N,12919.18086,E,2.691,50.43,260620,,,A*4A
$GNRMC,122735.40,A,3600.76332,N,12919.18095,E,2.879,52.42,260620,,,A*40
$GNRMC,122735.50,A,3600.76336,N,12919.18102,E,2.724,51.92,260620,,,A*43
$GNRMC,122735.60,A,3600.76340,N,12919.18110,E,2.632,52.37,260620,,,A*48
$GNRMC,122735.70,A,3600.76344,N,12919.18119,E,2.766,52.88,260620,,,A*40
$GNRMC,122735.80,A,3600.76349,N,12919.18127,E,2.769,51.97,260620,,,A*4D
$GNRMC,122735.90,A,3600.76354,N,12919.18135,E,2.724,51.00,260620,,,A*44
$GNRMC,122736.00,A,3600.76358,N,12919.18143,E,2.738,51.10,260620,,,A*4F
$GNRMC,122736.10,A,3600.76363,N,12919.18149,E,2.549,50.13,260620,,,A*4A
$GNRMC,122736.20,A,3600.76367,N,12919.18157,E,2.634,52.08,260620,,,A*43
$GNRMC,122736.30,A,3600.76372,N,12919.18164,E,2.706,52.04,260620,,,A*4A
$GNRMC,122736.40,A,3600.76378,N,12919.18171,E,2.698,51.44,260620,,,A*42
$GNRMC,122736.50,A,3600.76382,N,12919.18180,E,2.827,51.32,260620,,,A*43
$GNRMC,122736.60,A,3600.76388,N,12919.18187,E,2.742,49.52,260620,,,A*4E
$GNRMC,122736.70,A,3600.76392,N,12919.18194,E,2.505,47.81,260620,,,A*47
$GNRMC,122736.80,A,3600.76397,N,12919.18202,E,2.827,46.85,260620,,,A*49
$GNRMC,122736.90,A,3600.76402,N,12919.18209,E,2.735,47.44,260620,,,A*48
$GNRMC,122737.00,A,3600.76409,N,12919.18215,E,2.807,46.38,260620,,,A*42
$GNRMC,122737.10,A,3600.76412,N,12919.18224,E,2.703,48.48,260620,,,A*49
$GNRMC,122737.20,A,3600.76418,N,12919.18229,E,2.474,47.34,260620,,,A*4A
$GNRMC,122737.30,A,3600.76421,N,12919.18238,E,2.592,51.48,260620,,,A*44
$GNRMC,122737.40,A,3600.76427,N,12919.18245,E,2.747,50.91,260620,,,A*40
$GNRMC,122737.50,A,3600.76432,N,12919.18253,E,2.726,51.39,260620,,,A*46
$GNRMC,122737.60,A,3600.76437,N,12919.18261,E,2.877,52.69,260620,,,A*4C
$GNRMC,122737.70,A,3600.76442,N,12919.18267,E,2.607,51.02,260620,,,A*4E
$GNRMC,122737.80,A,3600.76447,N,12919.18273,E,2.555,50.12,260620,,,A*45
$GNRMC,122737.90,A,3600.76453,N,12919.18281,E,2.831,49.09,260620,,,A*41
$GNRMC,122738.00,A,3600.76457,N,12919.18290,E,2.810,51.42,260620,,,A*46
$GNRMC,122738.10,A,3600.76463,N,12919.18299,E,3.065,53.74,260620,,,A*45
$GNRMC,122738.20,A,3600.76467,N,12919.18307,E,2.920,54.89,260620,,,A*48
$GNRMC,122738.30,A,3600.76471,N,12919.18313,E,2.404,54.97,260620,,,A*4F
$GNRMC,122738.40,A,3600.76476,N,12919.18321,E,2.719,54.07,260620,,,A*48
$GNRMC,122738.50,A,3600.76480,N,12919.18329,E,2.751,54.89,260620,,,A*42
$GNRMC,122738.60,A,3600.76485,N,12919.18338,E,2.897,56.42,260620,,,A*44
$GNRMC,122738.70,A,3600.76490,N,12919.18345,E,2.847,54.69,260620,,,A*4D
$GNRMC,122738.80,A,3600.76495,N,12919.18352,E,2.726,51.27,260620,,,A*46
$GNRMC,122738.90,A,3600.76500,N,12919.18358,E,2.617,49.51,260620,,,A*4B
$GNRMC,122739.00,A,3600.76505,N,12919.18368,E,2.942,48.64,260620,,,A*4D
$GNRMC,122739.10,A,3600.76510,N,12919.18375,E,2.869,49.63,260620,,,A*4A
$GNRMC,122739.20,A,3600.76515,N,12919.18384,E,2.895,49.87,260620,,,A*4B
$GNRMC,122739.30,A,3600.76521,N,12919.18390,E,2.811,47.11,260620,,,A*45
$GNRMC,122739.40,A,3600.76525,N,12919.18397,E,2.572,49.05,260620,,,A*42
$GNRMC,122739.50,A,3600.76530,N,12919.18404,E,2.601,48.60,260620,,,A*4F
$GNRMC,122739.60,A,3600.76535,N,12919.18412,E,2.779,49.86,260620,,,A*49
$GNRMC,122739.70,A,3600.76540,N,12919.18419,E,2.693,51.31,260620,,,A*41
$GNRMC,122739.80,A,3600.76545,N,12919.18426,E,2.846,51.18,260620,,,A*4A
$GNRMC,122739.90,A,3600.76549,N,12919.18434,E,2.729,52.97,260620,,,A*46
$GNRMC,122740.00,A,3600.76556,N,12919.18439,E,2.713,48.92,260620,,,A*45
$GNRMC,122740.10,A,3600.76561,N,12919.18446,E,2.755,46.69,260620,,,A*40
$GNRMC,122740.20,A,3600.76566,N,12919.18452,E,2.526,48.23,260620,,,A*47
$GNRMC,122740.30,A,3600.76572,N,12919.18460,E,2.890,47.71,260620,,,A*4A
$GNRMC,122740.40,A,3600.76576,N,12919.18467,E,2.583,48.78,260620,,,A*47
$GNRMC,122740.50,A,3600.76580,N,12919.18474,E,2.562,51.55,260620,,,A*45
$GNRMC,122740.60,A,3600.76584,N,12919.18480,E,2.304,50.83,260620,,,A*45
$GNRMC,122740.70,A,3600.76588,N,12919.18488,E,2.603,52.92,260620,,,A*40
$GNRMC,122740.80,A,3600.76593,N,12919.18496,E,2.760,53.61,260620,,,A*43
$GNRMC,122740.90,A,3600.76598,N,12919.18503,E,2.807,54.00,260620,,,A*4A
$GNRMC,122741.00,A,3600.76602,N,12919.18510,E,2.539,53.15,260620,,,A*43
$GNRMC,122741.10,A,3600.76608,N,12919.18517,E,2.776,49.64,260620,,,A*4B
$GNRMC,122741.20,A,3600.76613,N,12919.18524,E,2.818,49.82,260620,,,A*4D
$GNRMC,122741.30,A,3600.76618,N,12919.18531,E,2.640,51.07,260620,,,A*44
$GNRMC,122741.40,A,3600.76622,N,12919.18539,E,2.671,49.87,260620,,,A*41
$GNRMC,122741.50,A,3600.76628,N,12919.18546,E,2.849,47.39,260620,,,A*4C
$GNRMC,122741.60,A,3600.76632,N,12919.18552,E,2.367,50.13,260620,,,A*48
$GNRMC,122741.70,A,3600.76636,N,12919.18561,E,2.552,51.05,260620,,,A*4B
$GNRMC,122741.80,A,3600.76642,N,12919.18570,E,2.797,49.96,260620,,,A*4F
$GNRMC,122741.90,A,3600.76645,N,12919.18578,E,2.623,52.79,260620,,,A*44
$GNRMC,122742.00,A,3600.76649,N,12919.18588,E,2.748,55.11,260620,,,A*48
$GNRMC,122742.10,A,3600.76653,N,12919.18596,E,2.692,55.19,260620,,,A*43
$GNRMC,122742.20,A,3600.76658,N,12919.18604,E,2.643,53.42,260620,,,A*47
$GNRMC,122742.30,A,3600.76663,N,12919.18613,E,2.817,52.30,260620,,,A*43
$GNRMC,122742.40,A,3600.76667,N,12919.18619,E,2.625,49.62,260620,,,A*48
$GNRMC,122742.50,A,3600.76670,N,12919.18627,E,2.471,51.95,260620,,,A*40
$GNRMC,122742.60,A,3600.76676,N,12919.18634,E,2.603,48.27,260620,,,A*41
$GNRMC,122742.70,A,3600.76681,N,12919.18642,E,2.749,47.65,260620,,,A*4F
$GNRMC,122742.80,A,3600.76683,N,12919.18648,E,2.210,49.09,260620,,,A*45
$GNRMC,122742.90,A,3600.76687,N,12919.18657,E,2.686,52.47,260620,,,A*45
$GNRMC,122743.00,A,3600.76691,N,12919.18665,E,2.629,53.80,260620,,,A*44
$GNRMC,122743.10,A,3600.76697,N,12919.18671,E,2.722,50.44,260620,,,A*47
$GNRMC,122743.20,A,3600.76702,N,12919.18677,E,2.698,46.16,260620,,,A*4F
$GNRMC,122743.30,A,3600.76707,N,12919.18684,E,2.628,45.11,260620,,,A*48
$GNRMC,122743.40,A,3600.76712,N,12919.18693,E,2.760,48.08,260620,,,A*45
$GNRMC,122743.50,A,3600.76716,N,12919.18701,E,2.669,50.09,260620,,,A*4A
$GNRMC,122743.60,A,3600.76722,N,12919.18708,E,2.813,49.48,260620,,,A*49
$GNRMC,122743.70,A,3600.76726,N,12919.18714,E,2.571,47.49,260620,,,A*47
$GNRMC,122743.80,A,3600.76730,N,12919.18720,E,2.380,48.91,260620,,,A*4A
$GNRMC,122743.90,A,3600.76735,N,12919.18727,E,2.539,47.74,260620,,,A*49
$GNRMC,122744.00,A,3600.76740,N,12919.18736,E,2.909,48.25,260620,,,A*41
$GNRMC,122744.10,A,3600.76744,N,12919.18745,E,2.823,52.72,260620,,,A*40
$GNRMC,122744.20,A,3600.76750,N,12919.18752,E,2.696,53.46,260620,,,A*46
$GNRMC,122744.30,A,3600.76753,N,12919.18759,E,2.648,50.33,260620,,,A*4D
$GNRMC,122744.40,A,3600.76758,N,12919.18765,E,2.480,49.92,260620,,,A*4B
$GNRMC,122744.50,A,3600.76762,N,12919.18774,E,2.932,51.37,260620,,,A*41
$GNRMC,122744.60,A,3600.76766,N,12919.18781,E,2.542,52.51,260620,,,A*44
$GNRMC,122744.70,A,3600.76771,N,12919.18789,E,2.724,52.29,260620,,,A*46
$GNRMC,122744.80,A,3600.76776,N,12919.18795,E,2.703,48.11,260620,,,A*46
$GNRMC,122744.90,A,3600.76780,N,12919.18801,E,2.335,49.71,260620,,,A*4A
$GNRMC,122745.00,A,3600.76786,N,12919.18809,E,2.705,49.44,260620,,,A*4D
$GNRMC,122745.10,A,3600.76790,N,12919.18818,E,2.768,51.69,260620,,,A*46
$GNRMC,122745.20,A,3600.76796,N,12919.18827,E,2.942,55.86,260620,,,A*4C
$GNRMC,122745.30,A,3600.76802,N,12919.18833,E,2.854,50.90,260620,,,A*4E
$GNRMC,122745.40,A,3600.76807,N,12919.18841,E,2.774,49.31,260620,,,A*47
$GNRMC,122745.50,A,3600.76813,N,12919.18846,E,2.604,48.36,260620,,,A*44
$GNRMC,122745.60,A,3600.76818,N,12919.18853,E,2.650,47.11,260620,,,A*43
$GNRMC,122745.70,A,3600.76823,N,12919.18861,E,2.660,47.99,260620,,,A*48
$GNRMC,122745.80,A,3600.76829,N,12919.18869,E,2.890,48.41,260620,,,A*4E
$GNRMC,122745.90,A,3600.76833,N,12919.18875,E,2.593,48.19,260620,,,A*4A
$GNRMC,122746.00,A,3600.76837,N,12919.18881,E,2.307,49.17,260620,,,A*4B
$GNRMC,122746.10,A,3600.76842,N,12919.18888,E,2.518,47.70,260620,,,A*46
$GNRMC,122746.20,A,3600.76847,N,12919.18898,E,2.738,52.09,260620,,,A*4B
$GNRMC,122746.30,A,3600.76851,N,12919.18908,E,2.879,54.16,260620,,,A*47
$GNRMC,122746.40,A,3600.76855,N,12919.18915,E,2.739,53.36,260620,,,A*46
$GNRMC,122746.50,A,3600.76861,N,12919.18922,E,2.714,51.55,260620,,,A*4C
$GNRMC,122746.60,A,3600.76865,N,12919.18931,E,2.680,54.51,260620,,,A*44
$GNRMC,122746.70,A,3600.76869,N,12919.18939,E,2.709,53.91,260620,,,A*4A
$GNRMC,122746.80,A,3600.76873,N,12919.18945,E,2.500,53.05,260620,,,A*43
$GNRMC,122746.90,A,3600.76878,N,12919.18953,E,2.648,51.61,260620,,,A*41
$GNRMC,122747.00,A,3600.76883,N,12919.18959,E,2.623,49.88,260620,,,A*44
$GNRMC,122747.10,A,3600.76887,N,12919.18965,E,2.322,48.56,260620,,,A*48
$GNRMC,122747.20,A,3600.76891,N,12919.18976,E,2.775,55.00,260620,,,A*47
$GNRMC,122747.30,A,3600.76896,N,12919.18983,E,2.891,54.98,260620,,,A*4E
$GNRMC,122747.40,A,3600.76899,N,12919.18990,E,2.548,55.50,260620,,,A*48
$GNRMC,122747.50,A,3600.76903,N,12919.18999,E,2.614,56.57,260620,,,A*4C
$GNRMC,122747.60,A,3600.76908,N,12919.19007,E,2.722,54.93,260620,,,A*45
$GNRMC,122747.70,A,3600.76913,N,12919.19014,E,2.735,51.63,260620,,,A*40
$GNRMC,122747.80,A,3600.76918,N,12919.19021,E,2.729,49.62,260620,,,A*47
$GNRMC,122747.90,A,3600.76923,N,12919.19028,E,2.727,48.81,260620,,,A*45
$GNRMC,122748.00,A,3600.76928,N,12919.19036,E,2.676,47.25,260620,,,A*43
$GNRMC,122748.10,A,3600.76932,N,12919.19042,E,2.487,46.42,260620,,,A*46
$GNRMC,122748.20,A,3600.76937,N,12919.19050,E,2.582,47.08,260620,,,A*48
$GNRMC,122748.30,A,3600.76942,N,12919.19058,E,2.779,48.41,260620,,,A*47
$GNRMC,122748.40,A,3600.76946,N,12919.19066,E,2.678,51.23,260620,,,A*45
$GNRMC,122748.50,A,3600.76950,N,12919.19074,E,2.620,50.68,260620,,,A*43
$GNRMC,122748.60,A,3600.76954,N,12919.19083,E,2.747,53.36,260620,,,A*44
$GNRMC,122748.70,A,3600.76959,N,12919.19091,E,2.735,55.73,260620,,,A*49
$GNRMC,122748.80,A,3600.76963,N,12919.19099,E,2.757,55.30,260620,,,A*44
$GNRMC,122748.90,A,3600.76968,N,12919.19105,E,2.631,51.93,260620,,,A*46
$GNRMC,122749.00,A,3600.76972,N,12919.19113,E,2.651,51.07,260620,,,A*49
$GNRMC,122749.10,A,3600.76978,N,12919.19121,E,2.780,50.03,260620,,,A*4B
$GNRMC,122749.20,A,3600.76984,N,12919.19130,E,2.980,49.93,260620,,,A*44
$GNRMC,122749.30,A,3600.76988,N,12919.19136,E,2.583,49.56,260620,,,A*49
$GNRMC,122749.40,A,3600.76993,N,12919.19146,E,2.977,49.84,260620,,,A*4B
$GNRMC,122749.50,A,3600.76998,N,12919.19154,E,2.768,51.86,260620,,,A*49
$GNRMC,122749.60,A,3600.77002,N,12919.19163,E,2.899,54.36,260620,,,A*4A
$GNRMC,122749.70,A,3600.77007,N,12919.19170,E,2.686,53.00,260620,,,A*4E
$GNRMC,122749.80,A,3600.77011,N,12919.19178,E,2.729,54.04,260620,,,A*49
$GNRMC,122749.90,A,3600.77016,N,12919.19186,E,2.844,52.75,260620,,,A*4A
$GNRMC,122750.00,A,3600.77020,N,12919.19192,E,2.542,52.40,260620,,,A*46
$GNRMC,122750.10,A,3600.77025,N,12919.19201,E,2.691,52.22,260620,,,A*42
$GNRMC,122750.20,A,3600.77030,N,12919.19208,E,2.658,49.90,260620,,,A*4A
$GNRMC,122750.30,A,3600.77034,N,12919.19215,E,2.490,49.84,260620,,,A*40
$GNRMC,122750.40,A,3600.77039,N,12919.19223,E,2.619,50.81,260620,,,A*41
$GNRMC,122750.50,A,3600.77044,N,12919.19231,E,2.745,48.71,260620,,,A*47
$GNRMC,122750.60,A,3600.77050,N,12919.19239,E,2.762,50.33,260620,,,A*43
$GNRMC,122750.70,A,3600.77055,N,12919.19246,E,2.707,48.94,260620,,,A*48
$GNRMC,122750.80,A,3600.77060,N,12919.19253,E,2.885,46.83,260620,,,A*48
$GNRMC,122750.90,A,3600.77065,N,12919.19260,E,2.596,47.73,260620,,,A*4D
$GNRMC,122751.00,A,3600.77069,N,12919.19267,E,2.529,48.47,260620,,,A*42
$GNRMC,122751.10,A,3600.77075,N,12919.19273,E,2.691,46.64,260620,,,A*44
$GNRMC,122751.20,A,3600.77079,N,12919.19282,E,2.747,50.11,260620,,,A*4A
$GNRMC,122751.30,A,3600.77084,N,12919.19287,E,2.499,49.14,260620,,,A*41
$GNRMC,122751.40,A,3600.77089,N,12919.19293,E,2.482,47.05,260620,,,A*4A
$GNRMC,122751.50,A,3600.77093,N,12919.19301,E,2.663,48.41,260620,,,A*48
$GNRMC,122751.60,A,3600.77098,N,12919.19309,E,2.801,49.97,260620,,,A*48
$GNRMC,122751.70,A,3600.77103,N,12919.19315,E,2.613,50.04,260620,,,A*48
$GNRMC,122751.80,A,3600.77109,N,12919.19325,E,3.046,48.50,260620,,,A*41
$GNRMC,122751.90,A,3600.77113,N,12919.19332,E,2.801,48.50,260620,,,A*47
$GNRMC,122752.00,A,3600.77120,N,12919.19338,E,2.873,46.65,260620,,,A*4A
$GNRMC,122752.10,A,3600.77124,N,12919.19345,E,2.804,47.21,260620,,,A*44
$GNRMC,122752.30,A,3600.77133,N,12919.19357,E,2.564,45.62,260620,,,A*4D
$GNRMC,122752.40,A,3600.77139,N,12919.19365,E,2.722,46.68,260620,,,A*48
$GNRMC,122752.50,A,3600.77144,N,12919.19370,E,2.543,44.58,260620,,,A*43
$GNRMC,122752.60,A,3600.77148,N,12919.19376,E,2.527,46.50,260620,,,A*42
$GNRMC,122752.70,A,3600.77153,N,12919.19386,E,3.052,48.86,260620,,,A*45
$GNRMC,122752.80,A,3600.77158,N,12919.19392,E,2.729,48.32,260620,,,A*41
$GNRMC,122752.90,A,3600.77161,N,12919.19399,E,2.432,49.66,260620,,,A*48
$GNRMC,122753.00,A,3600.77168,N,12919.19407,E,2.930,47.80,260620,,,A*40
$GNRMC,122753.10,A,3600.77172,N,12919.19414,E,2.699,49.09,260620,,,A*4B
$GNRMC,122753.20,A,3600.77178,N,12919.19422,E,2.872,49.05,260620,,,A*40
$GNRMC,122753.30,A,3600.77183,N,12919.19431,E,2.903,49.18,260620,,,A*4C
$GNRMC,122753.40,A,3600.77189,N,12919.19439,E,2.822,47.65,260620,,,A*4F
$GNRMC,122753.50,A,3600.77195,N,12919.19447,E,2.879,47.35,260620,,,A*41
$GNRMC,122753.60,A,3600.77197,N,12919.19455,E,2.487,51.96,260620,,,A*40
$GNRMC,122753.70,A,3600.77202,N,12919.19462,E,2.548,51.14,260620,,,A*42
$GNRMC,122753.80,A,3600.77207,N,12919.19469,E,2.632,49.12,260620,,,A*42
$GNRMC,122753.90,A,3600.77210,N,12919.19477,E,2.558,52.19,260620,,,A*44
$GNRMC,122754.00,A,3600.77215,N,12919.19485,E,2.675,51.68,260620,,,A*4B
$GNRMC,122754.10,A,3600.77220,N,12919.19494,E,2.779,52.51,260620,,,A*48
$GNRMC,122754.20,A,3600.77224,N,12919.19503,E,2.855,53.86,260620,,,A*4A
$GNRMC,122754.30,A,3600.77230,N,12919.19510,E,2.850,52.70,260620,,,A*41
$GNRMC,122754.40,A,3600.77234,N,12919.19517,E,2.651,51.50,260620,,,A*4B
$GNRMC,122754.50,A,3600.77238,N,12919.19525,E,2.752,52.40,260620,,,A*47
$GNRMC,122754.60,A,3600.77243,N,12919.19533,E,2.819,51.58,260620,,,A*45
$GNRMC,122754.70,A,3600.77248,N,12919.19539,E,2.581,51.80,260620,,,A*4C
$GNRMC,122754.80,A,3600.77253,N,12919.19547,E,2.758,51.06,260620,,,A*48
$GNRMC,122754.90,A,3600.77258,N,12919.19555,E,2.773,51.53,260620,,,A*48
$GNRMC,122755.10,A,3600.77265,N,12919.19570,E,2.703,52.28,260620,,,A*40
$GNRMC,122755.20,A,3600.77270,N,12919.19576,E,2.598,50.70,260620,,,A*4E
$GNRMC,122755.30,A,3600.77275,N,12919.19584,E,2.753,50.18,260620,,,A*4C
$GNRMC,122755.40,A,3600.77282,N,12919.19593,E,3.025,49.99,260620,,,A*43
$GNRMC,122755.50,A,3600.77285,N,12919.19599,E,2.684,47.93,260620,,,A*47
$GNRMC,122755.60,A,3600.77290,N,12919.19607,E,2.788,49.74,260620,,,A*4E
$GNRMC,122755.70,A,3600.77296,N,12919.19615,E,2.795,52.28,260620,,,A*45
$GNRMC,122755.80,A,3600.77299,N,12919.19621,E,2.422,54.14,260620,,,A*44
$GNRMC,122755.90,A,3600.77304,N,12919.19629,E,2.771,52.51,260620,,,A*4A
$GNRMC,122756.00,A,3600.77308,N,12919.19638,E,2.837,54.33,260620,,,A*43
$GNRMC,122756.10,A,3600.77311,N,12919.19646,E,2.750,56.61,260620,,,A*48
$GNRMC,122756.20,A,3600.77316,N,12919.19652,E,2.578,54.34,260620,,,A*43
$GNRMC,122756.30,A,3600.77318,N,12919.19659,E,2.495,53.60,260620,,,A*43
$GNRMC,122756.50,A,3600.77327,N,12919.19674,E,2.703,53.38,260620,,,A*47
$GNRMC,122756.60,A,3600.77333,N,12919.19683,E,2.931,52.42,260620,,,A*4A
$GNRMC,122756.70,A,3600.77341,N,12919.19689,E,3.089,46.33,260620,,,A*4C
$GNRMC,122756.80,A,3600.77347,N,12919.19695,E,3.113,42.50,260620,,,A*4B
$GNRMC,122756.90,A,3600.77354,N,12919.19701,E,3.150,38.90,260620,,,A*42
$GNRMC,122757.00,A,3600.77360,N,12919.19707,E,2.964,37.07,260620,,,A*44
$GNRMC,122757.10,A,3600.77367,N,12919.19713,E,2.851,36.71,260620,,,A*40
$GNRMC,122757.20,A,3600.77372,N,12919.19722,E,2.913,39.26,260620,,,A*4F
$GNRMC,122757.30,A,3600.77377,N,12919.19729,E,2.743,43.19,260620,,,A*4A
$GNRMC,122757.40,A,3600.77382,N,12919.19737,E,2.814,45.48,260620,,,A*47
$GNRMC,122757.50,A,3600.77388,N,12919.19742,E,2.796,44.72,260620,,,A*43
$GNRMC,122757.60,A,3600.77395,N,12919.19750,E,2.824,44.63,260620,,,A*49
$GNRMC,122757.70,A,3600.77399,N,12919.19757,E,2.786,45.27,260620,,,A*45
$GNRMC,122757.80,A,3600.77406,N,12919.19763,E,2.810,41.93,260620,,,A*47
$GNRMC,122757.90,A,3600.77409,N,12919.19772,E,2.652,46.54,260620,,,A*4D
$GNRMC,122758.00,A,3600.77416,N,12919.19780,E,2.919,48.00,260620,,,A*47
$GNRMC,122758.10,A,3600.77421,N,12919.19790,E,3.125,52.86,260620,,,A*40
$GNRMC,122758.20,A,3600.77427,N,12919.19797,E,3.083,54.08,260620,,,A*4F
$GNRMC,122758.30,A,3600.77432,N,12919.19804,E,3.001,51.63,260620,,,A*4D
$GNRMC,122758.40,A,3600.77437,N,12919.19809,E,2.743,48.41,260620,,,A*4A
$GNRMC,122758.50,A,3600.77443,N,12919.19818,E,2.975,47.61,260620,,,A*4E
$GNRMC,122758.60,A,3600.77448,N,12919.19824,E,2.728,47.64,260620,,,A*4A
$GNRMC,122758.70,A,3600.77454,N,12919.19831,E,2.885,47.41,260620,,,A*4D
$GNRMC,122758.80,A,3600.77460,N,12919.19841,E,3.124,48.89,260620,,,A*4A
$GNRMC,122758.90,A,3600.77465,N,12919.19845,E,2.720,46.72,260620,,,A*43
$GNRMC,122759.00,A,3600.77469,N,12919.19852,E,2.516,51.37,260620,,,A*41
$GNRMC,122759.10,A,3600.77475,N,12919.19860,E,2.758,49.78,260620,,,A*46
$GNRMC,122759.20,A,3600.77480,N,12919.19869,E,2.982,52.51,260620,,,A*4E
$GNRMC,122759.30,A,3600.77485,N,12919.19878,E,3.089,55.23,260620,,,A*4B
$GNRMC,122759.40,A,3600.77490,N,12919.19885,E,2.764,53.83,260620,,,A*43
$GNRMC,122759.50,A,3600.77495,N,12919.19891,E,2.749,50.85,260620,,,A*48
$GNRMC,122759.60,A,3600.77501,N,12919.19899,E,2.837,50.10,260620,,,A*45
$GNRMC,122759.70,A,3600.77505,N,12919.19908,E,2.922,52.64,260620,,,A*4D
$GNRMC,122759.80,A,3600.77511,N,12919.19914,E,2.819,50.73,260620,,,A*47
$GNRMC,122759.90,A,3600.77516,N,12919.19924,E,3.025,51.23,260620,,,A*40
$GNRMC,122800.00,A,3600.77522,N,12919.19930,E,2.862,48.52,260620,,,A*4C
$GNRMC,122800.10,A,3600.77526,N,12919.19937,E,2.671,48.54,260620,,,A*44
$GNRMC,122800.20,A,3600.77531,N,12919.19946,E,2.755,51.29,260620,,,A*42
$GNRMC,122800.30,A,3600.77536,N,12919.19954,E,2.853,51.82,260620,,,A*4F
$GNRMC,122800.40,A,3600.77541,N,12919.19961,E,2.750,51.14,260620,,,A*4D
$GNRMC,122800.50,A,3600.77546,N,12919.19969,E,2.901,50.81,260620,,,A*44
$GNRMC,122800.60,A,3600.77552,N,12919.19976,E,2.794,48.81,260620,,,A*47
$GNRMC,122800.70,A,3600.77556,N,12919.19985,E,2.950,50.18,260620,,,A*41
$GNRMC,122800.80,A,3600.77562,N,12919.19992,E,2.869,47.86,260620,,,A*45
$GNRMC,122800.90,A,3600.77567,N,12919.20000,E,2.897,48.63,260620,,,A*4C
$GNRMC,122801.00,A,3600.77573,N,12919.20009,E,3.045,47.94,260620,,,A*49
$GNRMC,122801.10,A,3600.77578,N,12919.20016,E,2.873,47.94,260620,,,A*41
$GNRMC,122801.20,A,3600.77581,N,12919.20024,E,2.624,51.70,260620,,,A*44
$GNRMC,122801.30,A,3600.77585,N,12919.20032,E,2.669,52.33,260620,,,A*4B
$GNRMC,122801.40,A,3600.77590,N,12919.20040,E,2.638,53.09,260620,,,A*41
$GNRMC,122801.50,A,3600.77594,N,12919.20048,E,2.782,52.84,260620,,,A*48
$GNRMC,122801.60,A,3600.77600,N,12919.20057,E,2.949,53.69,260620,,,A*40
$GNRMC,122801.70,A,3600.77605,N,12919.20064,E,2.808,52.15,260620,,,A*4A
$GNRMC,122801.80,A,3600.77610,N,12919.20072,E,2.851,50.45,260620,,,A*4D
$GNRMC,122801.90,A,3600.77615,N,12919.20079,E,2.766,50.26,260620,,,A*4C
$GNRMC,122802.00,A,3600.77620,N,12919.20087,E,2.872,50.23,260620,,,A*4E
$GNRMC,122802.10,A,3600.77626,N,12919.20096,E,2.987,50.11,260620,,,A*43
$GNRMC,122802.20,A,3600.77631,N,12919.20101,E,2.619,47.38,260620,,,A*4C
$GNRMC,122802.30,A,3600.77635,N,12919.20108,E,2.576,49.63,260620,,,A*4A
$GNRMC,122802.40,A,3600.77639,N,12919.20115,E,2.564,49.28,260620,,,A*41
$GNRMC,122802.50,A,3600.77643,N,12919.20124,E,2.645,52.61,260620,,,A*48
$GNRMC,122802.60,A,3600.77648,N,12919.20131,E,2.754,52.94,260620,,,A*4F
$GNRMC,122802.70,A,3600.77652,N,12919.20138,E,2.603,51.54,260620,,,A*40
$GNRMC,122802.80,A,3600.77657,N,12919.20145,E,2.691,50.22,260620,,,A*4B
$GNRMC,122802.90,A,3600.77662,N,12919.20153,E,2.813,50.39,260620,,,A*45
$GNRMC,122803.00,A,3600.77666,N,12919.20160,E,2.606,51.58,260620,,,A*45
$GNRMC,122803.10,A,3600.77670,N,12919.20168,E,2.637,53.20,260620,,,A*44
$GNRMC,122803.20,A,3600.77676,N,12919.20175,E,2.821,51.54,260620,,,A*45
$GNRMC,122803.30,A,3600.77680,N,12919.20179,E,2.390,48.45,260620,,,A*48
$GNRMC,122803.40,A,3600.77684,N,12919.20186,E,2.480,50.57,260620,,,A*47
$GNRMC,122803.50,A,3600.77688,N,12919.20194,E,2.608,53.29,260620,,,A*41
$GNRMC,122803.60,A,3600.77693,N,12919.20199,E,2.514,52.10,260620,,,A*40
$GNRMC,122803.70,A,3600.77697,N,12919.20210,E,2.884,57.29,260620,,,A*4C
