$GNRMC,122452.70,A,3600.81110,N,12919.17433,E,0.046,,260620,,,A*65
$GNRMC,122452.80,A,3600.81110,N,12919.17433,E,0.072,,260620,,,A*6D
$GNRMC,122452.90,A,3600.81110,N,12919.17432,E,0.028,,260620,,,A*62
$GNRMC,122453.00,A,3600.81109,N,12919.17432,E,0.074,,260620,,,A*6B
$GNRMC,122453.10,A,3600.81109,N,12919.17432,E,0.048,,260620,,,A*65
$GNRMC,122453.20,A,3600.81107,N,12919.17431,E,0.122,,260620,,,A*66
$GNRMC,122453.30,A,3600.81106,N,12919.17431,E,0.056,,260620,,,A*64
$GNRMC,122453.40,A,3600.81106,N,12919.17431,E,0.054,,260620,,,A*61
$GNRMC,122453.50,A,3600.81105,N,12919.17430,E,0.073,,260620,,,A*67
$GNRMC,122453.60,A,3600.81104,N,12919.17431,E,0.031,,260620,,,A*62
$GNRMC,122453.70,A,3600.81104,N,12919.17431,E,0.087,,260620,,,A*6E
$GNRMC,122453.80,A,3600.81104,N,12919.17431,E,0.146,,260620,,,A*6D
$GNRMC,122453.90,A,3600.81105,N,12919.17431,E,0.074,,260620,,,A*6D
$GNRMC,122454.00,A,3600.81104,N,12919.17430,E,0.113,,260620,,,A*63
$GNRMC,122454.10,A,3600.81104,N,12919.17431,E,0.103,,260620,,,A*62
$GNRMC,122454.20,A,3600.81103,N,12919.17432,E,0.157,,260620,,,A*64
$GNRMC,122454.30,A,3600.81103,N,12919.17432,E,0.116,,260620,,,A*60
$GNRMC,122454.40,A,3600.81102,N,12919.17432,E,0.089,,260620,,,A*61
$GNRMC,122454.50,A,3600.81101,N,12919.17428,E,0.418,,260620,,,A*64
$GNRMC,122454.60,A,3600.81093,N,12919.17427,E,0.985,211.22,260620,,,A*77
$GNRMC,122454.70,A,3600.81087,N,12919.17427,E,1.127,198.29,260620,,,A*7B
$GNRMC,122454.80,A,3600.81081,N,12919.17430,E,1.618,180.65,260620,,,A*7E
$GNRMC,122454.90,A,3600.81075,N,12919.17438,E,2.054,160.08,260620,,,A*74
$GNRMC,122455.00,A,3600.81068,N,12919.17443,E,2.426,150.68,260620,,,A*78
$GNRMC,122455.10,A,3600.81063,N,12919.17455,E,3.104,139.45,260620,,,A*71
$GNRMC,122455.20,A,3600.81059,N,12919.17463,E,3.117,134.83,260620,,,A*7B
$GNRMC,122455.30,A,3600.81053,N,12919.17476,E,3.503,128.16,260620,,,A*74
$GNRMC,122455.40,A,3600.81051,N,12919.17488,E,3.543,121.17,260620,,,A*7C
$GNRMC,122455.50,A,3600.81046,N,12919.17494,E,3.436,116.70,260620,,,A*70
$GNRMC,122455.60,A,3600.81041,N,12919.17500,E,3.237,115.32,260620,,,A*7A
$GNRMC,122455.70,A,3600.81038,N,12919.17507,E,3.133,113.36,260620,,,A*77
$GNRMC,122455.80,A,3600.81034,N,12919.17516,E,3.073,111.79,260620,,,A*78
$GNRMC,122455.90,A,3600.81031,N,12919.17522,E,2.734,110.44,260620,,,A*71
$GNRMC,122456.00,A,3600.81026,N,12919.17528,E,2.536,113.86,260620,,,A*7A
$GNRMC,122456.10,A,3600.81021,N,12919.17536,E,2.778,118.80,260620,,,A*76
$GNRMC,122456.20,A,3600.81016,N,12919.17540,E,2.488,123.73,260620,,,A*78
$GNRMC,122456.30,A,3600.81010,N,12919.17544,E,2.507,130.23,260620,,,A*7A
$GNRMC,122456.40,A,3600.81004,N,12919.17544,E,2.257,133.59,260620,,,A*74
$GNRMC,122456.50,A,3600.80997,N,12919.17547,E,2.412,135.45,260620,,,A*78
$GNRMC,122456.60,A,3600.80991,N,12919.17549,E,2.342,137.82,260620,,,A*78
$GNRMC,122456.70,A,3600.80986,N,12919.17550,E,2.183,144.50,260620,,,A*73
$GNRMC,122456.80,A,3600.80982,N,12919.17555,E,2.326,147.74,260620,,,A*75
$GNRMC,122456.90,A,3600.80978,N,12919.17559,E,2.177,149.54,260620,,,A*77
$GNRMC,122457.00,A,3600.80976,N,12919.17566,E,2.382,148.04,260620,,,A*71
$GNRMC,122457.10,A,3600.80973,N,12919.17574,E,2.264,142.40,260620,,,A*75
$GNRMC,122457.20,A,3600.80972,N,12919.17583,E,2.251,131.77,260620,,,A*79
$GNRMC,122457.30,A,3600.80970,N,12919.17596,E,2.639,122.86,260620,,,A*78
$GNRMC,122457.40,A,3600.80968,N,12919.17604,E,2.622,121.83,260620,,,A*72
$GNRMC,122457.50,A,3600.80966,N,12919.17611,E,2.318,123.26,260620,,,A*78
$GNRMC,122457.60,A,3600.80964,N,12919.17618,E,2.390,126.64,260620,,,A*73
$GNRMC,122457.70,A,3600.80964,N,12919.17622,E,1.914,127.99,260620,,,A*7D
$GNRMC,122457.80,A,3600.80965,N,12919.17624,E,1.589,132.20,260620,,,A*7B
$GNRMC,122457.90,A,3600.80961,N,12919.17627,E,1.720,141.73,260620,,,A*7E
$GNRMC,122458.00,A,3600.80959,N,12919.17633,E,1.874,144.82,260620,,,A*73
$GNRMC,122458.10,A,3600.80953,N,12919.17636,E,1.957,147.07,260620,,,A*73
$GNRMC,122458.20,A,3600.80948,N,12919.17640,E,2.005,150.01,260620,,,A*76
$GNRMC,122458.30,A,3600.80944,N,12919.17643,E,2.011,152.52,260620,,,A*79
$GNRMC,122458.40,A,3600.80939,N,12919.17645,E,1.853,153.92,260620,,,A*72
$GNRMC,122458.50,A,3600.80936,N,12919.17645,E,1.765,157.38,260620,,,A*72
$GNRMC,122458.60,A,3600.80934,N,12919.17645,E,1.322,158.63,260620,,,A*75
$GNRMC,122458.70,A,3600.80931,N,12919.17649,E,1.600,157.93,260620,,,A*78
$GNRMC,122458.80,A,3600.80927,N,12919.17652,E,1.863,159.87,260620,,,A*7A
$GNRMC,122458.90,A,3600.80923,N,12919.17653,E,1.676,160.79,260620,,,A*7F
$GNRMC,122459.00,A,3600.80920,N,12919.17657,E,1.719,161.30,260620,,,A*74
$GNRMC,122459.10,A,3600.80920,N,12919.17655,E,1.534,168.63,260620,,,A*75
$GNRMC,122459.20,A,3600.80915,N,12919.17658,E,1.669,170.40,260620,,,A*7E
$GNRMC,122459.30,A,3600.80912,N,12919.17660,E,1.723,171.10,260620,,,A*78
$GNRMC,122459.40,A,3600.80910,N,12919.17661,E,1.739,171.45,260620,,,A*77
$GNRMC,122459.50,A,3600.80906,N,12919.17663,E,1.763,173.23,260620,,,A*7E
$GNRMC,122459.60,A,3600.80906,N,12919.17662,E,1.421,175.97,260620,,,A*70
$GNRMC,122459.70,A,3600.80903,N,12919.17662,E,1.437,181.32,260620,,,A*77
$GNRMC,122459.80,A,3600.80901,N,12919.17660,E,1.366,187.23,260620,,,A*7D
$GNRMC,122459.90,A,3600.80900,N,12919.17658,E,1.124,190.85,260620,,,A*78
$GNRMC,122500.00,A,3600.80898,N,12919.17658,E,1.409,193.50,260620,,,A*7D
$GNRMC,122500.10,A,3600.80893,N,12919.17660,E,1.698,188.01,260620,,,A*78
$GNRMC,122500.20,A,3600.80889,N,12919.17661,E,1.476,184.98,260620,,,A*7F
$GNRMC,122500.30,A,3600.80884,N,12919.17662,E,1.698,182.25,260620,,,A*72
$GNRMC,122500.40,A,3600.80885,N,12919.17666,E,1.046,182.75,260620,,,A*70
$GNRMC,122500.50,A,3600.80885,N,12919.17666,E,1.079,189.83,260620,,,A*7F
$GNRMC,122500.60,A,3600.80886,N,12919.17666,E,1.344,195.06,260620,,,A*72
$GNRMC,122500.70,A,3600.80884,N,12919.17667,E,1.350,199.27,260620,,,A*7A
$GNRMC,122500.80,A,3600.80882,N,12919.17665,E,1.242,206.00,260620,,,A*73
$GNRMC,122500.90,A,3600.80880,N,12919.17663,E,1.474,207.74,260620,,,A*77
$GNRMC,122501.00,A,3600.80876,N,12919.17658,E,1.522,213.73,260620,,,A*7E
$GNRMC,122501.10,A,3600.80876,N,12919.17657,E,1.341,214.67,260620,,,A*71
$GNRMC,122501.20,A,3600.80874,N,12919.17653,E,1.563,218.01,260620,,,A*7E
$GNRMC,122501.30,A,3600.80872,N,12919.17652,E,1.308,218.07,260620,,,A*75
$GNRMC,122501.40,A,3600.80870,N,12919.17648,E,1.519,219.13,260620,,,A*79
$GNRMC,122501.50,A,3600.80871,N,12919.17645,E,1.455,221.61,260620,,,A*73
$GNRMC,122501.60,A,3600.80866,N,12919.17641,E,1.433,222.35,260620,,,A*70
$GNRMC,122501.70,A,3600.80860,N,12919.17637,E,1.610,220.70,260620,,,A*76
$GNRMC,122501.80,A,3600.80854,N,12919.17633,E,1.780,219.63,260620,,,A*7A
$GNRMC,122501.90,A,3600.80850,N,12919.17631,E,1.686,215.61,260620,,,A*74
$GNRMC,122502.00,A,3600.80848,N,12919.17628,E,1.459,214.88,260620,,,A*79
$GNRMC,122502.10,A,3600.80847,N,12919.17626,E,1.334,214.04,260620,,,A*71
$GNRMC,122502.20,A,3600.80844,N,12919.17621,E,1.599,219.63,260620,,,A*7B
$GNRMC,122502.30,A,3600.80844,N,12919.17618,E,1.497,220.79,260620,,,A*7E
$GNRMC,122502.40,A,3600.80843,N,12919.17614,E,1.586,222.70,260620,,,A*78
$GNRMC,122502.50,A,3600.80841,N,12919.17613,E,1.583,218.79,260620,,,A*79
$GNRMC,122502.60,A,3600.80840,N,12919.17612,E,1.593,215.57,260620,,,A*7A
$GNRMC,122502.70,A,3600.80838,N,12919.17609,E,1.328,213.61,260620,,,A*7B
$GNRMC,122502.80,A,3600.80835,N,12919.17606,E,1.312,213.95,260620,,,A*74
$GNRMC,122502.90,A,3600.80835,N,12919.17602,E,1.351,214.74,260620,,,A*7E
$GNRMC,122503.00,A,3600.80833,N,12919.17599,E,1.415,217.16,260620,,,A*71
$GNRMC,122503.10,A,3600.80833,N,12919.17596,E,1.329,218.62,260620,,,A*7B
$GNRMC,122503.20,A,3600.80829,N,12919.17595,E,1.268,212.04,260620,,,A*7E
$GNRMC,122503.30,A,3600.80829,N,12919.17590,E,1.185,216.08,260620,,,A*72
$GNRMC,122503.40,A,3600.80827,N,12919.17585,E,1.253,220.67,260620,,,A*7B
$GNRMC,122503.50,A,3600.80828,N,12919.17581,E,1.088,225.13,260620,,,A*73
$GNRMC,122503.60,A,3600.80825,N,12919.17578,E,0.990,223.52,260620,,,A*79
$GNRMC,122503.70,A,3600.80824,N,12919.17572,E,1.298,229.05,260620,,,A*79
$GNRMC,122503.80,A,3600.80821,N,12919.17566,E,1.517,230.86,260620,,,A*75
$GNRMC,122503.90,A,3600.80817,N,12919.17559,E,1.800,232.17,260620,,,A*7C
$GNRMC,122504.00,A,3600.80814,N,12919.17553,E,1.956,230.63,260620,,,A*78
$GNRMC,122504.10,A,3600.80812,N,12919.17546,E,2.038,234.34,260620,,,A*7F
$GNRMC,122504.20,A,3600.80809,N,12919.17540,E,2.030,235.03,260620,,,A*7D
$GNRMC,122504.30,A,3600.80806,N,12919.17534,E,2.160,233.36,260620,,,A*74
$GNRMC,122504.40,A,3600.80803,N,12919.17526,E,2.490,235.14,260620,,,A*79
$GNRMC,122504.50,A,3600.80800,N,12919.17520,E,2.461,231.82,260620,,,A*78
$GNRMC,122504.60,A,3600.80797,N,12919.17513,E,2.365,231.93,260620,,,A*79
$GNRMC,122504.70,A,3600.80796,N,12919.17506,E,2.302,233.70,260620,,,A*73
$GNRMC,122504.80,A,3600.80794,N,12919.17497,E,2.527,234.84,260620,,,A*7A
$GNRMC,122504.90,A,3600.80791,N,12919.17489,E,2.515,234.11,260620,,,A*7C
$GNRMC,122505.00,A,3600.80788,N,12919.17481,E,2.643,234.21,260620,,,A*77
$GNRMC,122505.10,A,3600.80785,N,12919.17476,E,2.482,232.75,260620,,,A*7B
$GNRMC,122505.20,A,3600.80780,N,12919.17471,E,2.519,229.11,260620,,,A*71
$GNRMC,122505.30,A,3600.80776,N,12919.17466,E,2.382,227.90,260620,,,A*7C
$GNRMC,122505.40,A,3600.80772,N,12919.17458,E,2.700,226.99,260620,,,A*74
$GNRMC,122505.50,A,3600.80767,N,12919.17452,E,2.651,227.22,260620,,,A*7F
$GNRMC,122505.60,A,3600.80759,N,12919.17448,E,2.450,225.89,260620,,,A*7A
$GNRMC,122505.70,A,3600.80756,N,12919.17444,E,2.159,224.21,260620,,,A*77
$GNRMC,122505.80,A,3600.80750,N,12919.17439,E,2.226,224.70,260620,,,A*7B
$GNRMC,122505.90,A,3600.80745,N,12919.17432,E,2.520,226.33,260620,,,A*71
$GNRMC,122506.00,A,3600.80740,N,12919.17428,E,2.542,225.62,260620,,,A*76
$GNRMC,122506.10,A,3600.80736,N,12919.17423,E,2.480,225.89,260620,,,A*77
$GNRMC,122506.20,A,3600.80733,N,12919.17421,E,2.277,225.68,260620,,,A*72
$GNRMC,122506.30,A,3600.80729,N,12919.17417,E,2.195,226.03,260620,,,A*7C
$GNRMC,122506.40,A,3600.80722,N,12919.17410,E,2.533,227.93,260620,,,A*77
$GNRMC,122506.50,A,3600.80718,N,12919.17404,E,2.687,226.72,260620,,,A*78
$GNRMC,122506.60,A,3600.80715,N,12919.17399,E,2.616,224.46,260620,,,A*78
$GNRMC,122506.70,A,3600.80710,N,12919.17393,E,2.697,224.35,260620,,,A*7B
$GNRMC,122506.80,A,3600.80705,N,12919.17387,E,2.585,225.60,260620,,,A*74
$GNRMC,122506.90,A,3600.80700,N,12919.17382,E,2.432,226.33,260620,,,A*7D
$GNRMC,122507.00,A,3600.80695,N,12919.17375,E,2.732,228.41,260620,,,A*78
$GNRMC,122507.10,A,3600.80689,N,12919.17367,E,2.817,229.45,260620,,,A*7A
$GNRMC,122507.20,A,3600.80684,N,12919.17361,E,2.643,230.87,260620,,,A*7B
$GNRMC,122507.30,A,3600.80681,N,12919.17355,E,2.576,233.64,260620,,,A*73
$GNRMC,122507.40,A,3600.80677,N,12919.17348,E,2.626,235.29,260620,,,A*78
$GNRMC,122507.50,A,3600.80672,N,12919.17341,E,2.610,235.87,260620,,,A*74
$GNRMC,122507.60,A,3600.80667,N,12919.17336,E,2.474,232.97,260620,,,A*75
$GNRMC,122507.70,A,3600.80661,N,12919.17329,E,2.631,234.09,260620,,,A*7E
$GNRMC,122507.80,A,3600.80655,N,12919.17324,E,2.713,230.06,260620,,,A*71
$GNRMC,122507.90,A,3600.80650,N,12919.17320,E,2.571,228.94,260620,,,A*75
$GNRMC,122508.00,A,3600.80646,N,12919.17316,E,2.318,229.59,260620,,,A*78
$GNRMC,122508.10,A,3600.80640,N,12919.17309,E,2.661,229.82,260620,,,A*7C
$GNRMC,122508.20,A,3600.80633,N,12919.17302,E,2.832,230.41,260620,,,A*7F
$GNRMC,122508.30,A,3600.80629,N,12919.17297,E,2.660,231.43,260620,,,A*72
$GNRMC,122508.40,A,3600.80621,N,12919.17291,E,2.601,231.38,260620,,,A*70
$GNRMC,122508.50,A,3600.80614,N,12919.17286,E,2.654,229.55,260620,,,A*73
$GNRMC,122508.60,A,3600.80608,N,12919.17281,E,2.593,230.15,260620,,,A*7E
$GNRMC,122508.70,A,3600.80604,N,12919.17274,E,2.623,231.17,260620,,,A*72
$GNRMC,122508.80,A,3600.80600,N,12919.17267,E,2.504,234.42,260620,,,A*78
$GNRMC,122508.90,A,3600.80595,N,12919.17263,E,2.573,231.50,260620,,,A*74
$GNRMC,122509.00,A,3600.80589,N,12919.17257,E,2.573,228.99,260620,,,A*7B
$GNRMC,122509.10,A,3600.80584,N,12919.17252,E,2.506,226.32,260620,,,A*7F
$GNRMC,122509.20,A,3600.80581,N,12919.17246,E,2.554,227.61,260620,,,A*7C
$GNRMC,122509.30,A,3600.80581,N,12919.17241,E,2.440,230.09,260620,,,A*76
$GNRMC,122509.40,A,3600.80577,N,12919.17235,E,2.637,231.03,260620,,,A*72
$GNRMC,122509.50,A,3600.80574,N,12919.17228,E,2.573,232.66,260620,,,A*7F
$GNRMC,122509.60,A,3600.80568,N,12919.17223,E,2.602,230.83,260620,,,A*76
$GNRMC,122509.70,A,3600.80565,N,12919.17217,E,2.435,230.68,260620,,,A*7E
$GNRMC,122509.80,A,3600.80560,N,12919.17211,E,2.629,228.29,260620,,,A*71
$GNRMC,122509.90,A,3600.80555,N,12919.17203,E,2.923,228.97,260620,,,A*75
$GNRMC,122510.00,A,3600.80549,N,12919.17197,E,2.785,228.71,260620,,,A*7D
$GNRMC,122510.10,A,3600.80544,N,12919.17189,E,2.685,230.07,260620,,,A*77
$GNRMC,122510.20,A,3600.80539,N,12919.17183,E,2.606,230.27,260620,,,A*7D
$GNRMC,122510.30,A,3600.80535,N,12919.17176,E,2.670,232.00,260620,,,A*7C
$GNRMC,122510.40,A,3600.80529,N,12919.17170,E,2.994,227.44,260620,,,A*71
$GNRMC,122510.50,A,3600.80525,N,12919.17162,E,2.823,228.67,260620,,,A*7C
$GNRMC,122510.60,A,3600.80522,N,12919.17156,E,2.559,230.31,260620,,,A*75
$GNRMC,122510.70,A,3600.80519,N,12919.17149,E,2.603,232.05,260620,,,A*7B
$GNRMC,122510.80,A,3600.80516,N,12919.17144,E,2.298,232.05,260620,,,A*70
$GNRMC,122510.90,A,3600.80510,N,12919.17137,E,2.721,231.41,260620,,,A*77
$GNRMC,122511.00,A,3600.80504,N,12919.17130,E,2.899,228.51,260620,,,A*78
$GNRMC,122511.10,A,3600.80499,N,12919.17123,E,2.853,228.24,260620,,,A*7A
$GNRMC,122511.20,A,3600.80497,N,12919.17115,E,2.673,232.26,260620,,,A*77
$GNRMC,122511.30,A,3600.80493,N,12919.17109,E,2.597,232.93,260620,,,A*78
$GNRMC,122511.40,A,3600.80489,N,12919.17101,E,2.620,235.63,260620,,,A*7B
$GNRMC,122511.50,A,3600.80483,N,12919.17094,E,2.912,230.91,260620,,,A*7B
$GNRMC,122511.60,A,3600.80478,N,12919.17088,E,2.824,228.99,260620,,,A*74
$GNRMC,122511.70,A,3600.80474,N,12919.17080,E,2.783,229.87,260620,,,A*7D
$GNRMC,122511.80,A,3600.80472,N,12919.17074,E,2.555,230.71,260620,,,A*77
$GNRMC,122511.90,A,3600.80467,N,12919.17068,E,2.437,229.78,260620,,,A*7B
$GNRMC,122512.00,A,3600.80462,N,12919.17061,E,2.623,227.10,260620,,,A*7A
$GNRMC,122512.10,A,3600.80453,N,12919.17052,E,2.968,225.50,260620,,,A*7F
$GNRMC,122512.20,A,3600.80447,N,12919.17047,E,2.675,224.28,260620,,,A*70
$GNRMC,122512.30,A,3600.80441,N,12919.17039,E,2.721,225.23,260620,,,A*74
$GNRMC,122512.40,A,3600.80437,N,12919.17033,E,2.537,225.87,260620,,,A*73
$GNRMC,122512.50,A,3600.80433,N,12919.17026,E,2.610,227.81,260620,,,A*70
$GNRMC,122512.60,A,3600.80426,N,12919.17019,E,2.765,226.87,260620,,,A*7F
$GNRMC,122512.70,A,3600.80420,N,12919.17011,E,2.884,225.50,260620,,,A*79
$GNRMC,122512.80,A,3600.80414,N,12919.17003,E,2.811,227.86,260620,,,A*77
$GNRMC,122512.90,A,3600.80411,N,12919.16997,E,2.600,229.69,260620,,,A*77
$GNRMC,122513.00,A,3600.80407,N,12919.16989,E,2.545,232.34,260620,,,A*77
$GNRMC,122513.10,A,3600.80401,N,12919.16983,E,2.618,229.38,260620,,,A*77
$GNRMC,122513.20,A,3600.80396,N,12919.16974,E,3.031,228.67,260620,,,A*72
$GNRMC,122513.30,A,3600.80391,N,12919.16967,E,2.921,229.30,260620,,,A*7C
$GNRMC,122513.40,A,3600.80387,N,12919.16960,E,2.680,231.33,260620,,,A*75
$GNRMC,122513.50,A,3600.80385,N,12919.16952,E,2.673,234.26,260620,,,A*7A
$GNRMC,122513.60,A,3600.80382,N,12919.16944,E,2.656,236.78,260620,,,A*77
$GNRMC,122513.70,A,3600.80378,N,12919.16934,E,2.935,237.52,260620,,,A*77
$GNRMC,122513.80,A,3600.80372,N,12919.16927,E,2.894,234.65,260620,,,A*7D
$GNRMC,122513.90,A,3600.80366,N,12919.16919,E,2.786,234.06,260620,,,A*7D
$GNRMC,122514.00,A,3600.80360,N,12919.16912,E,2.598,233.98,260620,,,A*73
$GNRMC,122514.10,A,3600.80359,N,12919.16905,E,2.497,237.05,260620,,,A*70
$GNRMC,122514.20,A,3600.80352,N,12919.16897,E,2.776,233.54,260620,,,A*7E
$GNRMC,122514.30,A,3600.80346,N,12919.16890,E,2.760,231.28,260620,,,A*73
$GNRMC,122514.40,A,3600.80341,N,12919.16882,E,2.833,231.24,260620,,,A*75
$GNRMC,122514.50,A,3600.80334,N,12919.16874,E,2.797,231.04,260620,,,A*7C
$GNRMC,122514.60,A,3600.80328,N,12919.16866,E,2.700,231.30,260620,,,A*78
$GNRMC,122514.70,A,3600.80323,N,12919.16859,E,2.833,230.83,260620,,,A*78
$GNRMC,122514.80,A,3600.80320,N,12919.16851,E,2.910,231.81,260620,,,A*7F
$GNRMC,122514.90,A,3600.80316,N,12919.16846,E,2.833,229.73,260620,,,A*79
$GNRMC,122515.00,A,3600.80312,N,12919.16840,E,2.701,228.82,260620,,,A*72
$GNRMC,122515.10,A,3600.80305,N,12919.16834,E,2.752,227.49,260620,,,A*78
$GNRMC,122515.20,A,3600.80301,N,12919.16827,E,2.549,229.17,260620,,,A*70
$GNRMC,122515.30,A,3600.80295,N,12919.16820,E,2.824,226.74,260620,,,A*76
$GNRMC,122515.40,A,3600.80291,N,12919.16812,E,2.815,228.52,260620,,,A*7C
$GNRMC,122515.50,A,3600.80285,N,12919.16805,E,2.903,227.51,260620,,,A*74
$GNRMC,122515.60,A,3600.80277,N,12919.16797,E,2.832,226.96,260620,,,A*77
$GNRMC,122515.70,A,3600.80274,N,12919.16789,E,2.637,230.29,260620,,,A*72
$GNRMC,122515.80,A,3600.80272,N,12919.16783,E,2.627,231.41,260620,,,A*7F
$GNRMC,122515.90,A,3600.80264,N,12919.16777,E,2.881,228.56,260620,,,A*7E
$GNRMC,122516.00,A,3600.80262,N,12919.16769,E,2.916,230.23,260620,,,A*79
$GNRMC,122516.10,A,3600.80257,N,12919.16762,E,2.753,231.89,260620,,,A*7B
$GNRMC,122516.20,A,3600.80252,N,12919.16755,E,2.755,232.30,260620,,,A*7E
$GNRMC,122516.30,A,3600.80248,N,12919.16748,E,2.605,232.98,260620,,,A*7E
$GNRMC,122516.40,A,3600.80242,N,12919.16740,E,2.847,232.29,260620,,,A*79
$GNRMC,122516.50,A,3600.80237,N,12919.16732,E,3.003,230.68,260620,,,A*71
$GNRMC,122516.60,A,3600.80233,N,12919.16724,E,2.876,230.94,260620,,,A*79
$GNRMC,122516.70,A,3600.80227,N,12919.16717,E,2.806,231.45,260620,,,A*77
$GNRMC,122516.80,A,3600.80224,N,12919.16711,E,2.525,231.82,260620,,,A*7A
$GNRMC,122516.90,A,3600.80219,N,12919.16703,E,2.694,231.80,260620,,,A*7D
$GNRMC,122517.00,A,3600.80214,N,12919.16695,E,2.954,231.33,260620,,,A*7D
$GNRMC,122517.10,A,3600.80207,N,12919.16688,E,2.999,228.65,260620,,,A*78
$GNRMC,122517.20,A,3600.80205,N,12919.16679,E,2.754,231.28,260620,,,A*79
$GNRMC,122517.30,A,3600.80197,N,12919.16674,E,2.707,228.38,260620,,,A*72
$GNRMC,122517.40,A,3600.80191,N,12919.16667,E,2.523,228.24,260620,,,A*78
$GNRMC,122517.50,A,3600.80186,N,12919.16659,E,2.775,228.50,260620,,,A*70
$GNRMC,122517.60,A,3600.80180,N,12919.16653,E,2.956,225.46,260620,,,A*7A
$GNRMC,122517.70,A,3600.80178,N,12919.16643,E,2.868,229.85,260620,,,A*72
$GNRMC,122517.80,A,3600.80171,N,12919.16637,E,2.808,228.74,260620,,,A*7E
$GNRMC,122517.90,A,3600.80166,N,12919.16629,E,2.762,231.27,260620,,,A*7B
$GNRMC,122518.00,A,3600.80161,N,12919.16623,E,2.807,230.06,260620,,,A*7E
$GNRMC,122518.10,A,3600.80157,N,12919.16616,E,2.920,229.73,260620,,,A*72
$GNRMC,122518.20,A,3600.80153,N,12919.16610,E,2.820,229.42,260620,,,A*70
$GNRMC,122518.30,A,3600.80150,N,12919.16603,E,2.723,231.36,260620,,,A*76
$GNRMC,122518.40,A,3600.80147,N,12919.16598,E,2.662,231.00,260620,,,A*77
$GNRMC,122518.50,A,3600.80144,N,12919.16591,E,2.524,232.20,260620,,,A*7C
$GNRMC,122518.60,A,3600.80140,N,12919.16585,E,2.688,231.47,260620,,,A*79
$GNRMC,122518.70,A,3600.80136,N,12919.16579,E,2.667,231.40,260620,,,A*7C
$GNRMC,122518.80,A,3600.80131,N,12919.16572,E,2.679,230.65,260620,,,A*76
$GNRMC,122518.90,A,3600.80127,N,12919.16562,E,2.866,233.58,260620,,,A*7C
$GNRMC,122519.00,A,3600.80123,N,12919.16556,E,2.480,234.59,260620,,,A*75
$GNRMC,122519.10,A,3600.80119,N,12919.16549,E,2.531,235.65,260620,,,A*76
$GNRMC,122519.20,A,3600.80116,N,12919.16542,E,2.735,232.83,260620,,,A*78
$GNRMC,122519.30,A,3600.80111,N,12919.16534,E,2.770,232.14,260620,,,A*70
$GNRMC,122519.40,A,3600.80105,N,12919.16527,E,2.744,231.72,260620,,,A*74
$GNRMC,122519.50,A,3600.80101,N,12919.16520,E,2.617,231.83,260620,,,A*7F
$GNRMC,122519.60,A,3600.80095,N,12919.16514,E,2.452,232.00,260620,,,A*7C
$GNRMC,122519.70,A,3600.80092,N,12919.16508,E,2.429,229.10,260620,,,A*70
$GNRMC,122519.80,A,3600.80087,N,12919.16500,E,2.674,229.66,260620,,,A*78
$GNRMC,122519.90,A,3600.80083,N,12919.16492,E,2.754,230.16,260620,,,A*7B
$GNRMC,122520.00,A,3600.80078,N,12919.16485,E,2.687,231.71,260620,,,A*75
$GNRMC,122520.10,A,3600.80072,N,12919.16477,E,2.524,234.63,260620,,,A*7F
$GNRMC,122520.20,A,3600.80067,N,12919.16471,E,2.436,234.10,260620,,,A*78
$GNRMC,122520.30,A,3600.80062,N,12919.16464,E,2.662,231.87,260620,,,A*70
$GNRMC,122520.40,A,3600.80056,N,12919.16457,E,2.602,230.38,260620,,,A*73
$GNRMC,122520.50,A,3600.80054,N,12919.16450,E,2.530,233.15,260620,,,A*79
$GNRMC,122520.60,A,3600.80050,N,12919.16444,E,2.536,233.23,260620,,,A*78
$GNRMC,122520.70,A,3600.80048,N,12919.16438,E,2.403,233.79,260620,,,A*73
$GNRMC,122520.80,A,3600.80046,N,12919.16431,E,2.447,234.33,260620,,,A*72
$GNRMC,122520.90,A,3600.80042,N,12919.16424,E,2.588,232.84,260620,,,A*7B
$GNRMC,122521.00,A,3600.80040,N,12919.16417,E,2.771,233.01,260620,,,A*79
$GNRMC,122521.10,A,3600.80035,N,12919.16410,E,2.670,232.60,260620,,,A*7B
$GNRMC,122521.20,A,3600.80031,N,12919.16404,E,2.520,234.29,260620,,,A*74
$GNRMC,122521.30,A,3600.80026,N,12919.16397,E,2.553,234.93,260620,,,A*7B
$GNRMC,122521.40,A,3600.80022,N,12919.16390,E,2.656,233.96,260620,,,A*7B
$GNRMC,122521.50,A,3600.80018,N,12919.16382,E,2.853,232.51,260620,,,A*71
$GNRMC,122521.60,A,3600.80015,N,12919.16376,E,2.597,234.23,260620,,,A*72
$GNRMC,122521.70,A,3600.80009,N,12919.16368,E,2.699,234.26,260620,,,A*79
$GNRMC,122521.80,A,3600.80003,N,12919.16362,E,2.645,233.23,260620,,,A*75
$GNRMC,122521.90,A,3600.79997,N,12919.16354,E,2.786,232.73,260620,,,A*79
$GNRMC,122522.00,A,3600.79993,N,12919.16347,E,2.819,232.67,260620,,,A*79
$GNRMC,122522.10,A,3600.79988,N,12919.16339,E,2.889,231.67,260620,,,A*71
$GNRMC,122522.20,A,3600.79983,N,12919.16331,E,2.822,232.72,260620,,,A*77
$GNRMC,122522.30,A,3600.79976,N,12919.16326,E,2.550,231.36,260620,,,A*71
$GNRMC,122522.40,A,3600.79975,N,12919.16320,E,2.658,231.67,260620,,,A*7C
$GNRMC,122522.50,A,3600.79974,N,12919.16313,E,2.780,234.66,260620,,,A*7C
$GNRMC,122522.60,A,3600.79976,N,12919.16304,E,3.033,237.35,260620,,,A*70
$GNRMC,122522.70,A,3600.79970,N,12919.16298,E,2.982,235.88,260620,,,A*75
$GNRMC,122522.80,A,3600.79966,N,12919.16290,E,2.850,235.44,260620,,,A*7B
$GNRMC,122522.90,A,3600.79963,N,12919.16285,E,2.563,235.30,260620,,,A*75
$GNRMC,122523.00,A,3600.79959,N,12919.16278,E,2.677,233.04,260620,,,A*71
$GNRMC,122523.10,A,3600.79954,N,12919.16268,E,2.894,233.32,260620,,,A*7A
$GNRMC,122523.20,A,3600.79948,N,12919.16262,E,2.823,232.20,260620,,,A*70
$GNRMC,122523.30,A,3600.79943,N,12919.16254,E,2.791,232.67,260620,,,A*7A
$GNRMC,122523.40,A,3600.79938,N,12919.16247,E,2.757,232.35,260620,,,A*7E
$GNRMC,122523.50,A,3600.79933,N,12919.16239,E,2.710,234.55,260620,,,A*7E
$GNRMC,122523.60,A,3600.79929,N,12919.16232,E,2.808,234.11,260620,,,A*7B
$GNRMC,122523.70,A,3600.79925,N,12919.16224,E,2.855,234.80,260620,,,A*71
$GNRMC,122523.80,A,3600.79921,N,12919.16216,E,2.858,234.76,260620,,,A*7F
$GNRMC,122523.90,A,3600.79918,N,12919.16209,E,2.754,236.45,260620,,,A*7B
$GNRMC,122524.00,A,3600.79918,N,12919.16203,E,2.508,236.75,260620,,,A*77
$GNRMC,122524.10,A,3600.79911,N,12919.16196,E,2.444,236.86,260620,,,A*75
$GNRMC,122524.20,A,3600.79909,N,12919.16189,E,2.580,231.84,260620,,,A*7D
$GNRMC,122524.30,A,3600.79903,N,12919.16179,E,2.832,233.05,260620,,,A*76
$GNRMC,122524.40,A,3600.79897,N,12919.16172,E,2.799,231.96,260620,,,A*70
$GNRMC,122524.50,A,3600.79892,N,12919.16164,E,2.749,232.78,260620,,,A*7D
$GNRMC,122524.60,A,3600.79890,N,12919.16155,E,2.701,235.47,260620,,,A*79
$GNRMC,122524.70,A,3600.79885,N,12919.16147,E,2.847,235.32,260620,,,A*70
$GNRMC,122524.80,A,3600.79878,N,12919.16139,E,2.839,233.33,260620,,,A*7A
$GNRMC,122524.90,A,3600.79874,N,12919.16131,E,2.813,233.97,260620,,,A*79
$GNRMC,122525.00,A,3600.79870,N,12919.16126,E,2.592,232.89,260620,,,A*79
$GNRMC,122525.10,A,3600.79865,N,12919.16119,E,2.521,233.45,260620,,,A*79
$GNRMC,122525.20,A,3600.79860,N,12919.16113,E,2.376,232.43,260620,,,A*76
$GNRMC,122525.30,A,3600.79855,N,12919.16106,E,2.518,231.29,260620,,,A*74
$GNRMC,122525.40,A,3600.79850,N,12919.16098,E,2.760,232.13,260620,,,A*77
$GNRMC,122525.50,A,3600.79841,N,12919.16090,E,2.816,232.45,260620,,,A*73
$GNRMC,122525.60,A,3600.79835,N,12919.16084,E,2.679,231.30,260620,,,A*70
$GNRMC,122525.70,A,3600.79829,N,12919.16076,E,2.517,234.09,260620,,,A*75
$GNRMC,122525.80,A,3600.79825,N,12919.16070,E,2.505,233.17,260620,,,A*7B
$GNRMC,122525.90,A,3600.79822,N,12919.16061,E,2.724,232.89,260620,,,A*7A
$GNRMC,122526.00,A,3600.79819,N,12919.16053,E,2.741,233.36,260620,,,A*7F
$GNRMC,122526.10,A,3600.79815,N,12919.16047,E,2.605,234.32,260620,,,A*75
$GNRMC,122526.20,A,3600.79811,N,12919.16040,E,2.541,234.16,260620,,,A*70
$GNRMC,122526.30,A,3600.79807,N,12919.16034,E,2.539,231.51,260620,,,A*7C
$GNRMC,122526.40,A,3600.79803,N,12919.16026,E,2.657,232.64,260620,,,A*72
$GNRMC,122526.50,A,3600.79801,N,12919.16020,E,2.529,232.85,260620,,,A*72
$GNRMC,122526.60,A,3600.79796,N,12919.16011,E,2.769,232.92,260620,,,A*72
$GNRMC,122526.70,A,3600.79791,N,12919.16004,E,2.627,233.25,260620,,,A*76
$GNRMC,122526.80,A,3600.79789,N,12919.16001,E,2.131,233.23,260620,,,A*73
$GNRMC,122526.90,A,3600.79783,N,12919.15993,E,2.401,231.27,260620,,,A*79
$GNRMC,122527.00,A,3600.79783,N,12919.15985,E,2.450,233.82,260620,,,A*7F
$GNRMC,122527.10,A,3600.79781,N,12919.15977,E,2.685,233.30,260620,,,A*72
$GNRMC,122527.20,A,3600.79776,N,12919.15970,E,2.711,234.74,260620,,,A*75
$GNRMC,122527.30,A,3600.79776,N,12919.15965,E,2.575,234.63,260620,,,A*76
$GNRMC,122527.40,A,3600.79772,N,12919.15959,E,2.470,233.62,260620,,,A*78
$GNRMC,122527.50,A,3600.79767,N,12919.15952,E,2.578,233.17,260620,,,A*7D
$GNRMC,122527.60,A,3600.79764,N,12919.15945,E,2.612,234.45,260620,,,A*74
$GNRMC,122527.70,A,3600.79759,N,12919.15936,E,2.844,233.43,260620,,,A*73
$GNRMC,122527.80,A,3600.79757,N,12919.15930,E,2.632,234.40,260620,,,A*7F
$GNRMC,122527.90,A,3600.79754,N,12919.15923,E,2.524,236.75,260620,,,A*7F
$GNRMC,122528.00,A,3600.79753,N,12919.15916,E,2.431,239.18,260620,,,A*79
$GNRMC,122528.10,A,3600.79748,N,12919.15906,E,2.783,239.12,260620,,,A*73
$GNRMC,122528.20,A,3600.79745,N,12919.15894,E,3.228,238.52,260620,,,A*77
$GNRMC,122528.30,A,3600.79741,N,12919.15888,E,2.802,238.73,260620,,,A*7F
$GNRMC,122528.40,A,3600.79737,N,12919.15883,E,2.495,236.49,260620,,,A*77
$GNRMC,122528.50,A,3600.79734,N,12919.15875,E,2.463,238.28,260620,,,A*7C
$GNRMC,122528.60,A,3600.79727,N,12919.15868,E,2.600,234.10,260620,,,A*71
$GNRMC,122528.70,A,3600.79721,N,12919.15859,E,2.687,233.53,260620,,,A*7B
$GNRMC,122528.80,A,3600.79720,N,12919.15851,E,2.677,234.93,260620,,,A*79
$GNRMC,122528.90,A,3600.79712,N,12919.15842,E,2.838,235.64,260620,,,A*77
$GNRMC,122529.00,A,3600.79709,N,12919.15834,E,2.637,236.72,260620,,,A*71
$GNRMC,122529.10,A,3600.79702,N,12919.15827,E,2.481,236.66,260620,,,A*73
$GNRMC,122529.20,A,3600.79700,N,12919.15820,E,2.631,233.86,260620,,,A*77
$GNRMC,122529.30,A,3600.79697,N,12919.15811,E,2.818,232.35,260620,,,A*77
$GNRMC,122529.40,A,3600.79694,N,12919.15802,E,2.872,234.90,260620,,,A*74
$GNRMC,122529.50,A,3600.79690,N,12919.15798,E,2.485,232.20,260620,,,A*74
$GNRMC,122529.60,A,3600.79689,N,12919.15792,E,2.357,231.09,260620,,,A*75
$GNRMC,122529.70,A,3600.79683,N,12919.15783,E,2.813,229.52,260620,,,A*72
$GNRMC,122529.80,A,3600.79677,N,12919.15778,E,2.742,226.26,260620,,,A*75
$GNRMC,122529.90,A,3600.79671,N,12919.15772,E,2.688,224.08,260620,,,A*71
$GNRMC,122530.00,A,3600.79667,N,12919.15767,E,2.540,223.44,260620,,,A*7B
$GNRMC,122530.10,A,3600.79662,N,12919.15757,E,2.806,227.47,260620,,,A*74
$GNRMC,122530.20,A,3600.79657,N,12919.15751,E,2.563,229.17,260620,,,A*72
$GNRMC,122530.30,A,3600.79652,N,12919.15745,E,2.674,226.99,260620,,,A*7F
$GNRMC,122530.40,A,3600.79647,N,12919.15739,E,2.731,224.80,260620,,,A*7D
$GNRMC,122530.50,A,3600.79639,N,12919.15729,E,2.840,225.69,260620,,,A*7B
$GNRMC,122530.60,A,3600.79632,N,12919.15723,E,2.581,226.55,260620,,,A*75
$GNRMC,122530.70,A,3600.79626,N,12919.15717,E,2.373,226.76,260620,,,A*7C
$GNRMC,122530.80,A,3600.79617,N,12919.15708,E,2.677,225.42,260620,,,A*7A
$GNRMC,122530.90,A,3600.79610,N,12919.15700,E,2.830,224.81,260620,,,A*77
$GNRMC,122531.00,A,3600.79603,N,12919.15693,E,2.845,224.66,260620,,,A*7D
$GNRMC,122531.10,A,3600.79595,N,12919.15687,E,2.688,224.03,260620,,,A*79
$GNRMC,122531.20,A,3600.79591,N,12919.15680,E,2.642,225.82,260620,,,A*77
$GNRMC,122531.30,A,3600.79587,N,12919.15673,E,2.526,229.73,260620,,,A*7E
$GNRMC,122531.40,A,3600.79582,N,12919.15668,E,2.515,227.53,260620,,,A*7A
$GNRMC,122531.50,A,3600.79577,N,12919.15661,E,2.716,226.76,260620,,,A*7F
$GNRMC,122531.60,A,3600.79573,N,12919.15653,E,2.799,228.45,260620,,,A*70
$GNRMC,122531.70,A,3600.79566,N,12919.15646,E,2.740,229.62,260620,,,A*71
$GNRMC,122531.80,A,3600.79563,N,12919.15641,E,2.439,229.19,260620,,,A*7D
$GNRMC,122531.90,A,3600.79556,N,12919.15632,E,2.699,228.54,260620,,,A*7E
$GNRMC,122532.00,A,3600.79550,N,12919.15624,E,2.650,230.31,260620,,,A*7A
$GNRMC,122532.10,A,3600.79545,N,12919.15617,E,2.690,229.93,260620,,,A*73
$GNRMC,122532.20,A,3600.79539,N,12919.15610,E,2.659,232.02,260620,,,A*7B
$GNRMC,122532.30,A,3600.79535,N,12919.15602,E,2.611,233.61,260620,,,A*7D
$GNRMC,122532.40,A,3600.79532,N,12919.15595,E,2.486,235.75,260620,,,A*7F
$GNRMC,122532.50,A,3600.79526,N,12919.15589,E,2.495,233.93,260620,,,A*7A
$GNRMC,122532.60,A,3600.79523,N,12919.15580,E,2.761,231.91,260620,,,A*7D
$GNRMC,122532.70,A,3600.79518,N,12919.15571,E,2.833,234.14,260620,,,A*7A
$GNRMC,122532.80,A,3600.79512,N,12919.15565,E,2.613,233.84,260620,,,A*78
$GNRMC,122532.90,A,3600.79507,N,12919.15559,E,2.562,232.95,260620,,,A*76
$GNRMC,122533.00,A,3600.79502,N,12919.15552,E,2.482,232.88,260620,,,A*73
$GNRMC,122533.10,A,3600.79495,N,12919.15546,E,2.560,229.54,260620,,,A*7E
$GNRMC,122533.20,A,3600.79489,N,12919.15537,E,2.645,228.56,260620,,,A*71
$GNRMC,122533.30,A,3600.79481,N,12919.15530,E,2.650,229.26,260620,,,A*7D
$GNRMC,122533.40,A,3600.79475,N,12919.15521,E,2.784,230.73,260620,,,A*71
$GNRMC,122533.50,A,3600.79471,N,12919.15515,E,2.458,231.80,260620,,,A*7C
$GNRMC,122533.60,A,3600.79467,N,12919.15509,E,2.392,231.80,260620,,,A*74
$GNRMC,122533.70,A,3600.79463,N,12919.15500,E,2.748,230.57,260620,,,A*70
$GNRMC,122533.80,A,3600.79459,N,12919.15493,E,2.596,232.86,260620,,,A*72
$GNRMC,122533.90,A,3600.79455,N,12919.15485,E,2.727,233.01,260620,,,A*7E
$GNRMC,122534.00,A,3600.79450,N,12919.15479,E,2.553,234.09,260620,,,A*78
$GNRMC,122534.10,A,3600.79446,N,12919.15473,E,2.429,233.73,260620,,,A*72
$GNRMC,122534.20,A,3600.79441,N,12919.15464,E,2.721,232.52,260620,,,A*79
$GNRMC,122534.30,A,3600.79437,N,12919.15457,E,2.652,232.87,260620,,,A*74
$GNRMC,122534.40,A,3600.79432,N,12919.15448,E,2.864,232.64,260620,,,A*7E
$GNRMC,122534.50,A,3600.79428,N,12919.15442,E,2.553,231.88,260620,,,A*76
$GNRMC,122534.60,A,3600.79422,N,12919.15435,E,2.495,233.74,260620,,,A*75
$GNRMC,122534.70,A,3600.79419,N,12919.15426,E,2.707,234.66,260620,,,A*72
$GNRMC,122534.80,A,3600.79413,N,12919.15417,E,2.953,233.20,260620,,,A*7F
$GNRMC,122534.90,A,3600.79409,N,12919.15409,E,2.814,233.64,260620,,,A*78
$GNRMC,122535.00,A,3600.79404,N,12919.15403,E,2.585,235.81,260620,,,A*7F
$GNRMC,122535.10,A,3600.79397,N,12919.15398,E,2.534,231.84,260620,,,A*7D
$GNRMC,122535.20,A,3600.79391,N,12919.15393,E,2.352,230.82,260620,,,A*72
$GNRMC,122535.30,A,3600.79384,N,12919.15386,E,2.622,229.32,260620,,,A*72
$GNRMC,122535.40,A,3600.79378,N,12919.15379,E,2.794,227.12,260620,,,A*76
$GNRMC,122535.50,A,3600.79371,N,12919.15372,E,2.840,226.33,260620,,,A*71
$GNRMC,122535.60,A,3600.79366,N,12919.15367,E,2.487,227.53,260620,,,A*70
$GNRMC,122535.70,A,3600.79360,N,12919.15359,E,2.655,230.58,260620,,,A*7A
$GNRMC,122535.80,A,3600.79354,N,12919.15355,E,2.359,229.50,260620,,,A*77
$GNRMC,122535.90,A,3600.79348,N,12919.15347,E,2.725,228.54,260620,,,A*72
$GNRMC,122536.00,A,3600.79342,N,12919.15338,E,2.922,229.36,260620,,,A*76
$GNRMC,122536.10,A,3600.79335,N,12919.15334,E,2.557,229.94,260620,,,A*7D
$GNRMC,122536.20,A,3600.79328,N,12919.15330,E,2.444,227.45,260620,,,A*77
$GNRMC,122536.30,A,3600.79325,N,12919.15323,E,2.370,227.64,260620,,,A*7A
$GNRMC,122536.40,A,3600.79317,N,12919.15318,E,2.541,225.52,260620,,,A*77
$GNRMC,122536.50,A,3600.79311,N,12919.15310,E,2.787,225.04,260620,,,A*73
$GNRMC,122536.60,A,3600.79303,N,12919.15304,E,2.738,225.27,260620,,,A*73
$GNRMC,122536.70,A,3600.79298,N,12919.15298,E,2.724,224.24,260620,,,A*7A
$GNRMC,122536.80,A,3600.79293,N,12919.15294,E,2.215,224.45,260620,,,A*72
$GNRMC,122536.90,A,3600.79284,N,12919.15288,E,2.558,225.02,260620,,,A*74
$GNRMC,122537.00,A,3600.79279,N,12919.15282,E,2.608,223.16,260620,,,A*71
$GNRMC,122537.10,A,3600.79273,N,12919.15273,E,2.961,225.72,260620,,,A*70
$GNRMC,122537.20,A,3600.79266,N,12919.15268,E,2.762,225.54,260620,,,A*74
$GNRMC,122537.30,A,3600.79256,N,12919.15264,E,2.624,224.46,260620,,,A*7B
$GNRMC,122537.40,A,3600.79251,N,12919.15258,E,2.610,225.13,260620,,,A*72
$GNRMC,122537.50,A,3600.79245,N,12919.15252,E,2.628,224.58,260620,,,A*79
$GNRMC,122537.60,A,3600.79237,N,12919.15246,E,2.791,223.81,260620,,,A*7A
$GNRMC,122537.70,A,3600.79232,N,12919.15238,E,2.823,224.57,260620,,,A*7D
$GNRMC,122537.80,A,3600.79222,N,12919.15235,E,2.632,223.96,260620,,,A*7A
$GNRMC,122537.90,A,3600.79214,N,12919.15230,E,2.516,223.76,260620,,,A*70
$GNRMC,122538.00,A,3600.79208,N,12919.15225,E,2.327,224.35,260620,,,A*7B
$GNRMC,122538.10,A,3600.79201,N,12919.15221,E,2.499,221.57,260620,,,A*74
$GNRMC,122538.20,A,3600.79198,N,12919.15213,E,2.597,221.63,260620,,,A*7D
$GNRMC,122538.30,A,3600.79191,N,12919.15208,E,2.578,223.56,260620,,,A*7A
$GNRMC,122538.40,A,3600.79184,N,12919.15203,E,2.696,222.65,260620,,,A*70
$GNRMC,122538.50,A,3600.79178,N,12919.15199,E,2.497,221.37,260620,,,A*75
$GNRMC,122538.60,A,3600.79171,N,12919.15193,E,2.676,220.74,260620,,,A*7E
$GNRMC,122538.70,A,3600.79164,N,12919.15186,E,2.925,219.49,260620,,,A*72
$GNRMC,122538.80,A,3600.79159,N,12919.15181,E,2.756,218.45,260620,,,A*73
$GNRMC,122538.90,A,3600.79151,N,12919.15175,E,2.736,219.22,260620,,,A*77
$GNRMC,122539.00,A,3600.79146,N,12919.15169,E,2.656,221.01,260620,,,A*79
$GNRMC,122539.10,A,3600.79140,N,12919.15163,E,2.655,221.68,260620,,,A*78
$GNRMC,122539.20,A,3600.79136,N,12919.15156,E,2.771,219.83,260620,,,A*75
$GNRMC,122539.30,A,3600.79131,N,12919.15150,E,2.630,220.53,260620,,,A*76
$GNRMC,122539.40,A,3600.79125,N,12919.15143,E,2.784,222.91,260620,,,A*74
$GNRMC,122539.50,A,3600.79117,N,12919.15140,E,2.722,219.36,260620,,,A*7E
$GNRMC,122539.60,A,3600.79110,N,12919.15132,E,2.789,222.10,260620,,,A*72
$GNRMC,122539.70,A,3600.79103,N,12919.15127,E,2.771,219.95,260620,,,A*77
$GNRMC,122539.80,A,3600.79100,N,12919.15120,E,2.719,218.96,260620,,,A*70
$GNRMC,122539.90,A,3600.79093,N,12919.15113,E,2.844,220.26,260620,,,A*7D
$GNRMC,122540.00,A,3600.79086,N,12919.15107,E,2.823,219.87,260620,,,A*7B
$GNRMC,122540.10,A,3600.79077,N,12919.15101,E,2.822,223.30,260620,,,A*76
$GNRMC,122540.20,A,3600.79073,N,12919.15093,E,2.749,224.57,260620,,,A*7F
$GNRMC,122540.30,A,3600.79071,N,12919.15086,E,2.700,225.12,260620,,,A*75
$GNRMC,122540.40,A,3600.79067,N,12919.15080,E,2.666,225.49,260620,,,A*7C
$GNRMC,122540.50,A,3600.79064,N,12919.15073,E,2.541,227.71,260620,,,A*7D
$GNRMC,122540.60,A,3600.79057,N,12919.15066,E,2.623,228.06,260620,,,A*72
$GNRMC,122540.70,A,3600.79055,N,12919.15058,E,2.596,228.04,260620,,,A*73
$GNRMC,122540.80,A,3600.79049,N,12919.15051,E,2.795,227.30,260620,,,A*71
$GNRMC,122540.90,A,3600.79043,N,12919.15044,E,2.735,226.14,260620,,,A*73
$GNRMC,122541.00,A,3600.79038,N,12919.15038,E,2.709,224.70,260620,,,A*73
$GNRMC,122541.10,A,3600.79031,N,12919.15031,E,2.809,226.45,260620,,,A*79
$GNRMC,122541.20,A,3600.79026,N,12919.15023,E,2.825,229.77,260620,,,A*7F
$GNRMC,122541.30,A,3600.79036,N,12919.15008,E,2.862,236.97,260620,,,A*75
$GNRMC,122541.40,A,3600.79053,N,12919.14989,E,2.959,243.38,260620,,,A*7E
$GNRMC,122541.50,A,3600.79055,N,12919.14978,E,3.008,244.24,260620,,,A*71
$GNRMC,122541.60,A,3600.79056,N,12919.14968,E,2.948,246.37,260620,,,A*7C
$GNRMC,122541.70,A,3600.79062,N,12919.14955,E,2.853,247.43,260620,,,A*7D
$GNRMC,122541.80,A,3600.79069,N,12919.14942,E,2.875,248.87,260620,,,A*7C
$GNRMC,122541.90,A,3600.79063,N,12919.14936,E,2.831,246.28,260620,,,A*7F
$GNRMC,122542.00,A,3600.79059,N,12919.14929,E,2.775,242.14,260620,,,A*76
$GNRMC,122542.10,A,3600.79057,N,12919.14921,E,2.669,241.53,260620,,,A*7D
$GNRMC,122542.20,A,3600.79053,N,12919.14914,E,2.644,240.67,260620,,,A*75
$GNRMC,122542.30,A,3600.79048,N,12919.14905,E,2.798,242.18,260620,,,A*74
$GNRMC,122542.40,A,3600.79045,N,12919.14898,E,2.589,241.31,260620,,,A*71
$GNRMC,122542.50,A,3600.79041,N,12919.14890,E,2.760,237.74,260620,,,A*79
$GNRMC,122542.60,A,3600.79041,N,12919.14881,E,2.641,238.24,260620,,,A*72
$GNRMC,122542.70,A,3600.79035,N,12919.14875,E,2.537,238.63,260620,,,A*7A
$GNRMC,122542.80,A,3600.79028,N,12919.14869,E,2.605,237.55,260620,,,A*7C
$GNRMC,122542.90,A,3600.79020,N,12919.14862,E,2.672,237.68,260620,,,A*70
$GNRMC,122543.00,A,3600.79010,N,12919.14858,E,2.664,233.77,260620,,,A*7F
$GNRMC,122543.10,A,3600.79009,N,12919.14851,E,2.459,231.41,260620,,,A*74
$GNRMC,122543.20,A,3600.79000,N,12919.14847,E,2.431,231.46,260620,,,A*70
$GNRMC,122543.30,A,3600.78992,N,12919.14841,E,2.618,232.39,260620,,,A*76
$GNRMC,122543.40,A,3600.78990,N,12919.14833,E,2.622,233.52,260620,,,A*73
$GNRMC,122543.50,A,3600.78986,N,12919.14827,E,2.408,236.16,260620,,,A*7F
$GNRMC,122543.60,A,3600.78983,N,12919.14820,E,2.517,236.29,260620,,,A*7D
$GNRMC,122543.70,A,3600.78978,N,12919.14812,E,2.637,235.65,260620,,,A*73
$GNRMC,122543.80,A,3600.78976,N,12919.14805,E,2.575,239.33,260620,,,A*7E
$GNRMC,122543.90,A,3600.78969,N,12919.14798,E,2.587,239.56,260620,,,A*74
$GNRMC,122544.00,A,3600.78965,N,12919.14790,E,2.532,239.76,260620,,,A*72
$GNRMC,122544.10,A,3600.78962,N,12919.14782,E,2.518,238.94,260620,,,A*72
$GNRMC,122544.20,A,3600.78959,N,12919.14774,E,2.540,237.11,260620,,,A*7F
$GNRMC,122544.30,A,3600.78948,N,12919.14769,E,2.594,232.37,260620,,,A*7A
$GNRMC,122544.40,A,3600.78944,N,12919.14761,E,2.523,235.29,260620,,,A*7D
$GNRMC,122544.50,A,3600.78932,N,12919.14757,E,2.398,234.95,260620,,,A*78
$GNRMC,122544.60,A,3600.78938,N,12919.14745,E,2.413,236.74,260620,,,A*7B
$GNRMC,122544.70,A,3600.78930,N,12919.14735,E,2.875,235.62,260620,,,A*7D
$GNRMC,122544.80,A,3600.78927,N,12919.14727,E,2.648,234.27,260620,,,A*77
$GNRMC,122544.90,A,3600.78921,N,12919.14721,E,2.477,233.63,260620,,,A*7F
$GNRMC,122545.00,A,3600.78918,N,12919.14713,E,2.469,233.35,260620,,,A*70
$GNRMC,122545.10,A,3600.78914,N,12919.14706,E,2.306,231.98,260620,,,A*72
$GNRMC,122545.20,A,3600.78911,N,12919.14697,E,2.479,229.73,260620,,,A*7E
$GNRMC,122545.30,A,3600.78905,N,12919.14689,E,2.710,228.66,260620,,,A*7C
$GNRMC,122545.40,A,3600.78901,N,12919.14682,E,2.528,226.86,260620,,,A*7D
$GNRMC,122545.50,A,3600.78893,N,12919.14676,E,2.578,226.22,260620,,,A*76
$GNRMC,122545.60,A,3600.78891,N,12919.14668,E,2.436,230.07,260620,,,A*73
$GNRMC,122545.70,A,3600.78890,N,12919.14660,E,2.352,231.61,260620,,,A*7F
$GNRMC,122545.80,A,3600.78885,N,12919.14651,E,2.633,232.89,260620,,,A*71
$GNRMC,122545.90,A,3600.78880,N,12919.14642,E,2.730,231.85,260620,,,A*7A
$GNRMC,122546.00,A,3600.78876,N,12919.14635,E,2.577,233.42,260620,,,A*71
$GNRMC,122546.10,A,3600.78871,N,12919.14627,E,2.586,231.74,260620,,,A*7D
$GNRMC,122546.20,A,3600.78868,N,12919.14620,E,2.436,232.33,260620,,,A*7B
$GNRMC,122546.30,A,3600.78862,N,12919.14612,E,2.614,231.56,260620,,,A*73
$GNRMC,122546.40,A,3600.78858,N,12919.14605,E,2.733,228.30,260620,,,A*77
$GNRMC,122546.50,A,3600.78854,N,12919.14599,E,2.449,227.69,260620,,,A*71
$GNRMC,122546.60,A,3600.78850,N,12919.14592,E,2.395,228.50,260620,,,A*7E
$GNRMC,122546.70,A,3600.78850,N,12919.14582,E,2.518,231.83,260620,,,A*7B
$GNRMC,122546.80,A,3600.78848,N,12919.14575,E,2.485,233.11,260620,,,A*79
$GNRMC,122546.90,A,3600.78844,N,12919.14566,E,2.579,233.70,260620,,,A*73
$GNRMC,122547.00,A,3600.78839,N,12919.14558,E,2.682,233.71,260620,,,A*7A
$GNRMC,122547.10,A,3600.78835,N,12919.14551,E,2.584,234.00,260620,,,A*7A
$GNRMC,122547.20,A,3600.78832,N,12919.14544,E,2.466,233.93,260620,,,A*7A
$GNRMC,122547.30,A,3600.78828,N,12919.14538,E,2.399,232.61,260620,,,A*70
$GNRMC,122547.40,A,3600.78824,N,12919.14530,E,2.506,232.13,260620,,,A*76
$GNRMC,122547.50,A,3600.78819,N,12919.14523,E,2.547,229.70,260620,,,A*71
$GNRMC,122547.60,A,3600.78814,N,12919.14517,E,2.610,227.84,260620,,,A*7C
$GNRMC,122547.70,A,3600.78809,N,12919.14509,E,2.492,229.50,260620,,,A*71
$GNRMC,122547.80,A,3600.78805,N,12919.14502,E,2.517,231.07,260620,,,A*7E
$GNRMC,122547.90,A,3600.78806,N,12919.14494,E,2.515,234.35,260620,,,A*74
$GNRMC,122548.00,A,3600.78802,N,12919.14487,E,2.544,235.63,260620,,,A*72
$GNRMC,122548.10,A,3600.78798,N,12919.14480,E,2.608,235.37,260620,,,A*72
$GNRMC,122548.20,A,3600.78795,N,12919.14473,E,2.614,234.07,260620,,,A*7F
$GNRMC,122548.30,A,3600.78793,N,12919.14466,E,2.451,235.48,260620,,,A*75
$GNRMC,122548.40,A,3600.78790,N,12919.14458,E,2.715,234.81,260620,,,A*7B
$GNRMC,122548.50,A,3600.78786,N,12919.14452,E,2.688,232.69,260620,,,A*72
$GNRMC,122548.60,A,3600.78782,N,12919.14445,E,2.743,230.92,260620,,,A*73
$GNRMC,122548.70,A,3600.78777,N,12919.14440,E,2.600,227.39,260620,,,A*7C
$GNRMC,122548.80,A,3600.78774,N,12919.14434,E,2.523,228.60,260620,,,A*72
$GNRMC,122548.90,A,3600.78772,N,12919.14427,E,2.575,230.93,260620,,,A*71
$GNRMC,122549.00,A,3600.78771,N,12919.14421,E,2.428,231.27,260620,,,A*7B
$GNRMC,122549.10,A,3600.78768,N,12919.14414,E,2.522,231.27,260620,,,A*7F
$GNRMC,122549.20,A,3600.78763,N,12919.14407,E,2.606,230.88,260620,,,A*74
$GNRMC,122549.30,A,3600.78761,N,12919.14401,E,2.447,231.84,260620,,,A*7B
$GNRMC,122549.40,A,3600.78758,N,12919.14394,E,2.410,233.15,260620,,,A*75
$GNRMC,122549.50,A,3600.78755,N,12919.14386,E,2.643,232.66,260620,,,A*7B
$GNRMC,122549.60,A,3600.78751,N,12919.14378,E,2.630,232.99,260620,,,A*79
$GNRMC,122549.70,A,3600.78748,N,12919.14373,E,2.481,231.24,260620,,,A*76
$GNRMC,122549.80,A,3600.78744,N,12919.14367,E,2.509,228.60,260620,,,A*79
$GNRMC,122549.90,A,3600.78744,N,12919.14360,E,2.358,229.97,260620,,,A*74
$GNRMC,122550.00,A,3600.78741,N,12919.14352,E,2.498,232.60,260620,,,A*78
$GNRMC,122550.10,A,3600.78738,N,12919.14345,E,2.556,231.46,260620,,,A*75
$GNRMC,122550.20,A,3600.78734,N,12919.14339,E,2.556,229.70,260620,,,A*7D
$GNRMC,122550.30,A,3600.78730,N,12919.14332,E,2.668,229.66,260620,,,A*7A
$GNRMC,122550.40,A,3600.78729,N,12919.14325,E,2.538,230.52,260620,,,A*7A
$GNRMC,122550.50,A,3600.78726,N,12919.14319,E,2.494,230.55,260620,,,A*7B
$GNRMC,122550.60,A,3600.78723,N,12919.14311,E,2.560,230.47,260620,,,A*7C
$GNRMC,122550.70,A,3600.78721,N,12919.14304,E,2.547,230.89,260620,,,A*7C
$GNRMC,122550.80,A,3600.78715,N,12919.14298,E,2.633,228.39,260620,,,A*72
$GNRMC,122550.90,A,3600.78712,N,12919.14292,E,2.611,227.40,260620,,,A*7F
$GNRMC,122551.00,A,3600.78712,N,12919.14285,E,2.543,228.42,260620,,,A*78
$GNRMC,122551.10,A,3600.78710,N,12919.14277,E,2.553,231.51,260620,,,A*7D
$GNRMC,122551.20,A,3600.78711,N,12919.14270,E,2.387,231.78,260620,,,A*7C
$GNRMC,122551.30,A,3600.78708,N,12919.14263,E,2.512,232.64,260620,,,A*73
$GNRMC,122551.40,A,3600.78704,N,12919.14257,E,2.513,231.20,260620,,,A*7D
$GNRMC,122551.50,A,3600.78702,N,12919.14248,E,2.600,233.62,260620,,,A*71
$GNRMC,122551.60,A,3600.78700,N,12919.14239,E,2.735,234.92,260620,,,A*79
$GNRMC,122551.70,A,3600.78697,N,12919.14234,E,2.407,234.65,260620,,,A*70
$GNRMC,122551.80,A,3600.78695,N,12919.14226,E,2.616,232.71,260620,,,A*7F
$GNRMC,122551.90,A,3600.78690,N,12919.14218,E,2.681,231.23,260620,,,A*7C
$GNRMC,122552.00,A,3600.78686,N,12919.14212,E,2.616,229.91,260620,,,A*75
$GNRMC,122552.10,A,3600.78682,N,12919.14206,E,2.542,229.17,260620,,,A*79
$GNRMC,122552.20,A,3600.78680,N,12919.14198,E,2.473,230.50,260620,,,A*74
$GNRMC,122552.30,A,3600.78677,N,12919.14190,E,2.602,232.80,260620,,,A*7E
$GNRMC,122552.40,A,3600.78673,N,12919.14183,E,2.643,232.07,260620,,,A*75
$GNRMC,122552.50,A,3600.78671,N,12919.14176,E,2.563,231.82,260620,,,A*73
$GNRMC,122552.60,A,3600.78668,N,12919.14168,E,2.682,231.92,260620,,,A*7A
$GNRMC,122552.70,A,3600.78669,N,12919.14161,E,2.366,234.07,260620,,,A*75
$GNRMC,122552.80,A,3600.78665,N,12919.14153,E,2.541,233.51,260620,,,A*70
$GNRMC,122552.90,A,3600.78660,N,12919.14145,E,2.757,231.07,260620,,,A*77
$GNRMC,122553.00,A,3600.78657,N,12919.14137,E,2.744,230.19,260620,,,A*72
$GNRMC,122553.10,A,3600.78651,N,12919.14131,E,2.655,228.30,260620,,,A*70
$GNRMC,122553.20,A,3600.78651,N,12919.14123,E,2.533,230.15,260620,,,A*7D
$GNRMC,122553.30,A,3600.78649,N,12919.14115,E,2.568,233.34,260620,,,A*7E
$GNRMC,122553.40,A,3600.78646,N,12919.14108,E,2.465,233.65,260620,,,A*72
$GNRMC,122553.50,A,3600.78643,N,12919.14100,E,2.626,233.79,260620,,,A*76
$GNRMC,122553.60,A,3600.78638,N,12919.14093,E,2.654,232.17,260620,,,A*7E
$GNRMC,122553.70,A,3600.78638,N,12919.14086,E,2.382,234.21,260620,,,A*76
$GNRMC,122553.80,A,3600.78636,N,12919.14077,E,2.733,234.61,260620,,,A*73
$GNRMC,122553.90,A,3600.78636,N,12919.14070,E,2.431,236.08,260620,,,A*79
$GNRMC,122554.00,A,3600.78630,N,12919.14064,E,2.397,235.07,260620,,,A*73
$GNRMC,122554.10,A,3600.78626,N,12919.14057,E,2.566,231.35,260620,,,A*78
$GNRMC,122554.20,A,3600.78622,N,12919.14050,E,2.572,231.75,260620,,,A*79
$GNRMC,122554.30,A,3600.78616,N,12919.14044,E,2.647,230.30,260620,,,A*7F
$GNRMC,122554.40,A,3600.78613,N,12919.14040,E,2.394,230.03,260620,,,A*72
$GNRMC,122554.50,A,3600.78610,N,12919.14034,E,2.504,231.68,260620,,,A*70
$GNRMC,122554.60,A,3600.78609,N,12919.14025,E,2.904,233.00,260620,,,A*7B
$GNRMC,122554.70,A,3600.78604,N,12919.14019,E,2.678,231.94,260620,,,A*73
$GNRMC,122554.80,A,3600.78600,N,12919.14012,E,2.487,232.12,260620,,,A*7C
$GNRMC,122554.90,A,3600.78598,N,12919.14004,E,2.670,231.01,260620,,,A*73
$GNRMC,122555.00,A,3600.78593,N,12919.13998,E,2.626,228.91,260620,,,A*79
$GNRMC,122555.10,A,3600.78591,N,12919.13990,E,2.641,230.62,260620,,,A*76
$GNRMC,122555.20,A,3600.78587,N,12919.13983,E,2.709,229.28,260620,,,A*7B
$GNRMC,122555.30,A,3600.78583,N,12919.13977,E,2.518,228.42,260620,,,A*7A
$GNRMC,122555.40,A,3600.78580,N,12919.13971,E,2.418,229.01,260620,,,A*7F
$GNRMC,122555.50,A,3600.78577,N,12919.13964,E,2.450,231.69,260620,,,A*79
$GNRMC,122555.60,A,3600.78576,N,12919.13957,E,2.386,232.47,260620,,,A*78
$GNRMC,122555.70,A,3600.78572,N,12919.13949,E,2.572,231.80,260620,,,A*77
$GNRMC,122555.80,A,3600.78567,N,12919.13942,E,2.692,230.73,260620,,,A*77
$GNRMC,122555.90,A,3600.78566,N,12919.13934,E,2.611,232.14,260620,,,A*7E
$GNRMC,122556.00,A,3600.78563,N,12919.13928,E,2.499,232.12,260620,,,A*78
$GNRMC,122556.10,A,3600.78560,N,12919.13921,E,2.538,232.02,260620,,,A*78
$GNRMC,122556.20,A,3600.78556,N,12919.13914,E,2.606,230.85,260620,,,A*7B
$GNRMC,122556.30,A,3600.78551,N,12919.13907,E,2.744,228.79,260620,,,A*72
$GNRMC,122556.40,A,3600.78547,N,12919.13900,E,2.721,228.17,260620,,,A*7E
$GNRMC,122556.50,A,3600.78544,N,12919.13894,E,2.336,230.49,260620,,,A*70
$GNRMC,122556.60,A,3600.78542,N,12919.13886,E,2.410,232.46,260620,,,A*78
$GNRMC,122556.70,A,3600.78540,N,12919.13879,E,2.377,233.58,260620,,,A*73
$GNRMC,122556.80,A,3600.78536,N,12919.13873,E,2.466,231.80,260620,,,A*77
$GNRMC,122556.90,A,3600.78533,N,12919.13864,E,2.586,232.46,260620,,,A*73
$GNRMC,122557.00,A,3600.78530,N,12919.13858,E,2.389,232.55,260620,,,A*7C
$GNRMC,122557.10,A,3600.78526,N,12919.13850,E,2.744,231.27,260620,,,A*71
$GNRMC,122557.20,A,3600.78522,N,12919.13843,E,2.516,231.33,260620,,,A*74
$GNRMC,122557.30,A,3600.78519,N,12919.13836,E,2.593,231.47,260620,,,A*71
$GNRMC,122557.40,A,3600.78515,N,12919.13827,E,2.790,232.53,260620,,,A*7D
$GNRMC,122557.50,A,3600.78511,N,12919.13821,E,2.662,229.84,260620,,,A*72
$GNRMC,122557.60,A,3600.78508,N,12919.13815,E,2.459,228.84,260620,,,A*75
$GNRMC,122557.70,A,3600.78504,N,12919.13807,E,2.526,230.96,260620,,,A*78
$GNRMC,122557.80,A,3600.78501,N,12919.13799,E,2.594,233.54,260620,,,A*7E
$GNRMC,122557.90,A,3600.78498,N,12919.13791,E,2.673,233.03,260620,,,A*7E
$GNRMC,122558.00,A,3600.78495,N,12919.13782,E,2.763,234.99,260620,,,A*73
$GNRMC,122558.10,A,3600.78491,N,12919.13773,E,2.791,236.19,260620,,,A*7F
$GNRMC,122558.20,A,3600.78489,N,12919.13766,E,2.765,234.83,260620,,,A*7B
$GNRMC,122558.30,A,3600.78486,N,12919.13759,E,2.623,233.19,260620,,,A*7E
$GNRMC,122558.40,A,3600.78481,N,12919.13751,E,2.756,231.35,260620,,,A*79
$GNRMC,122558.50,A,3600.78478,N,12919.13744,E,2.780,229.80,260620,,,A*76
$GNRMC,122558.60,A,3600.78473,N,12919.13737,E,2.777,229.20,260620,,,A*78
$GNRMC,122558.70,A,3600.78471,N,12919.13730,E,2.686,228.91,260620,,,A*78
$GNRMC,122558.80,A,3600.78469,N,12919.13722,E,2.662,232.54,260620,,,A*75
$GNRMC,122558.90,A,3600.78466,N,12919.13716,E,2.541,231.53,260620,,,A*7A
$GNRMC,122559.00,A,3600.78463,N,12919.13709,E,2.725,229.78,260620,,,A*79
$GNRMC,122559.10,A,3600.78459,N,12919.13702,E,2.739,229.78,260620,,,A*77
$GNRMC,122559.20,A,3600.78458,N,12919.13696,E,2.544,230.10,260620,,,A*77
$GNRMC,122559.30,A,3600.78456,N,12919.13686,E,2.833,232.71,260620,,,A*71
$GNRMC,122559.40,A,3600.78451,N,12919.13680,E,2.594,232.25,260620,,,A*76
$GNRMC,122559.50,A,3600.78448,N,12919.13673,E,2.708,229.91,260620,,,A*71
$GNRMC,122559.60,A,3600.78443,N,12919.13665,E,2.762,228.40,260620,,,A*7F
$GNRMC,122559.70,A,3600.78439,N,12919.13659,E,2.585,227.65,260620,,,A*7F
$GNRMC,122559.80,A,3600.78436,N,12919.13652,E,2.560,228.21,260620,,,A*70
$GNRMC,122559.90,A,3600.78432,N,12919.13645,E,2.624,229.37,260620,,,A*76
$GNRMC,122600.00,A,3600.78430,N,12919.13637,E,2.602,230.28,260620,,,A*75
$GNRMC,122600.10,A,3600.78426,N,12919.13630,E,2.648,229.25,260620,,,A*7F
$GNRMC,122600.20,A,3600.78422,N,12919.13625,E,2.421,226.88,260620,,,A*79
$GNRMC,122600.30,A,3600.78420,N,12919.13616,E,2.429,230.74,260620,,,A*76
$GNRMC,122600.40,A,3600.78416,N,12919.13608,E,2.590,230.87,260620,,,A*74
$GNRMC,122600.50,A,3600.78413,N,12919.13603,E,2.415,229.72,260620,,,A*75
$GNRMC,122600.60,A,3600.78409,N,12919.13595,E,2.533,229.14,260620,,,A*74
$GNRMC,122600.70,A,3600.78405,N,12919.13588,E,2.654,228.74,260620,,,A*70
$GNRMC,122600.80,A,3600.78402,N,12919.13584,E,2.438,226.45,260620,,,A*70
$GNRMC,122600.90,A,3600.78399,N,12919.13575,E,2.748,230.08,260620,,,A*70
$GNRMC,122601.00,A,3600.78399,N,12919.13569,E,2.433,232.68,260620,,,A*7E
$GNRMC,122601.10,A,3600.78397,N,12919.13563,E,2.387,232.39,260620,,,A*77
$GNRMC,122601.20,A,3600.78393,N,12919.13559,E,2.288,231.97,260620,,,A*70
$GNRMC,122601.30,A,3600.78389,N,12919.13553,E,2.611,230.58,260620,,,A*76
$GNRMC,122601.40,A,3600.78391,N,12919.13549,E,2.197,233.06,260620,,,A*72
$GNRMC,122601.50,A,3600.78387,N,12919.13543,E,2.301,231.60,260620,,,A*71
$GNRMC,122601.60,A,3600.78382,N,12919.13535,E,2.670,228.54,260620,,,A*7A
$GNRMC,122601.70,A,3600.78376,N,12919.13528,E,2.731,228.19,260620,,,A*71
$GNRMC,122601.80,A,3600.78373,N,12919.13520,E,2.847,227.22,260620,,,A*7A
$GNRMC,122601.90,A,3600.78370,N,12919.13514,E,2.532,227.63,260620,,,A*75
$GNRMC,122602.00,A,3600.78367,N,12919.13508,E,2.366,228.91,260620,,,A*71
$GNRMC,122602.10,A,3600.78362,N,12919.13499,E,2.599,229.74,260620,,,A*70
$GNRMC,122602.20,A,3600.78361,N,12919.13494,E,2.262,230.65,260620,,,A*76
$GNRMC,122602.30,A,3600.78358,N,12919.13485,E,2.577,230.06,260620,,,A*7B
$GNRMC,122602.40,A,3600.78354,N,12919.13476,E,2.659,233.39,260620,,,A*7C
$GNRMC,122602.50,A,3600.78351,N,12919.13470,E,2.310,234.56,260620,,,A*78
$GNRMC,122602.60,A,3600.78349,N,12919.13463,E,2.300,234.64,260620,,,A*70
$GNRMC,122602.70,A,3600.78345,N,12919.13457,E,2.252,232.23,260620,,,A*79
$GNRMC,122602.80,A,3600.78343,N,12919.13447,E,2.556,233.37,260620,,,A*76
$GNRMC,122602.90,A,3600.78337,N,12919.13437,E,2.995,229.48,260620,,,A*73
$GNRMC,122603.00,A,3600.78335,N,12919.13432,E,2.552,227.64,260620,,,A*7B
$GNRMC,122603.10,A,3600.78333,N,12919.13425,E,2.310,229.13,260620,,,A*74
$GNRMC,122603.20,A,3600.78328,N,12919.13417,E,2.516,230.54,260620,,,A*77
$GNRMC,122603.30,A,3600.78326,N,12919.13410,E,2.366,231.75,260620,,,A*7C
$GNRMC,122603.40,A,3600.78323,N,12919.13403,E,2.468,227.72,260620,,,A*75
$GNRMC,122603.50,A,3600.78316,N,12919.13396,E,2.491,228.03,260620,,,A*76
$GNRMC,122603.60,A,3600.78314,N,12919.13388,E,2.465,230.17,260620,,,A*7F
$GNRMC,122603.70,A,3600.78310,N,12919.13380,E,2.355,232.03,260620,,,A*71
$GNRMC,122603.80,A,3600.78306,N,12919.13374,E,2.312,229.82,260620,,,A*72
$GNRMC,122603.90,A,3600.78301,N,12919.13365,E,2.618,229.13,260620,,,A*73
$GNRMC,122604.00,A,3600.78295,N,12919.13359,E,2.528,226.57,260620,,,A*71
$GNRMC,122604.10,A,3600.78290,N,12919.13350,E,2.589,228.00,260620,,,A*7B
$GNRMC,122604.20,A,3600.78287,N,12919.13342,E,2.396,230.88,260620,,,A*7C
$GNRMC,122604.30,A,3600.78283,N,12919.13334,E,2.305,233.80,260620,,,A*79
$GNRMC,122604.40,A,3600.78278,N,12919.13325,E,2.535,233.11,260620,,,A*77
$GNRMC,122604.50,A,3600.78274,N,12919.13317,E,2.460,232.12,260620,,,A*78
$GNRMC,122604.60,A,3600.78269,N,12919.13310,E,2.482,232.19,260620,,,A*77
$GNRMC,122604.70,A,3600.78265,N,12919.13303,E,2.354,233.02,260620,,,A*7F
$GNRMC,122604.80,A,3600.78261,N,12919.13296,E,2.379,233.59,260620,,,A*78
$GNRMC,122604.90,A,3600.78257,N,12919.13288,E,2.518,233.18,260620,,,A*77
$GNRMC,122605.00,A,3600.78252,N,12919.13281,E,2.614,230.42,260620,,,A*70
$GNRMC,122605.10,A,3600.78245,N,12919.13275,E,2.616,226.39,260620,,,A*75
$GNRMC,122605.20,A,3600.78239,N,12919.13266,E,2.783,228.25,260620,,,A*71
$GNRMC,122605.30,A,3600.78235,N,12919.13258,E,2.545,231.71,260620,,,A*70
$GNRMC,122605.40,A,3600.78232,N,12919.13249,E,2.535,236.70,260620,,,A*71
$GNRMC,122605.50,A,3600.78227,N,12919.13242,E,2.472,233.85,260620,,,A*72
$GNRMC,122605.60,A,3600.78221,N,12919.13232,E,2.863,230.94,260620,,,A*7F
$GNRMC,122605.70,A,3600.78216,N,12919.13225,E,2.760,232.85,260620,,,A*72
$GNRMC,122605.80,A,3600.78212,N,12919.13218,E,2.579,233.88,260620,,,A*71
$GNRMC,122605.90,A,3600.78208,N,12919.13211,E,2.466,236.37,260620,,,A*7C
$GNRMC,122606.00,A,3600.78202,N,12919.13206,E,2.492,232.19,260620,,,A*79
$GNRMC,122606.10,A,3600.78197,N,12919.13198,E,2.639,232.39,260620,,,A*72
$GNRMC,122606.20,A,3600.78191,N,12919.13192,E,2.645,231.27,260620,,,A*7A
$GNRMC,122606.30,A,3600.78186,N,12919.13184,E,2.663,233.35,260620,,,A*7F
$GNRMC,122606.40,A,3600.78182,N,12919.13179,E,2.362,234.87,260620,,,A*74
$GNRMC,122606.50,A,3600.78179,N,12919.13172,E,2.367,235.46,260620,,,A*73
$GNRMC,122606.60,A,3600.78174,N,12919.13165,E,2.555,231.54,260620,,,A*7B
$GNRMC,122606.70,A,3600.78168,N,12919.13157,E,2.827,229.96,260620,,,A*79
$GNRMC,122606.80,A,3600.78164,N,12919.13150,E,2.730,231.05,260620,,,A*77
$GNRMC,122606.90,A,3600.78162,N,12919.13143,E,2.533,234.80,260620,,,A*7B
$GNRMC,122607.00,A,3600.78158,N,12919.13136,E,2.486,235.53,260620,,,A*78
$GNRMC,122607.10,A,3600.78153,N,12919.13129,E,2.522,233.01,260620,,,A*72
$GNRMC,122607.20,A,3600.78148,N,12919.13121,E,2.759,230.64,260620,,,A*7D
$GNRMC,122607.30,A,3600.78141,N,12919.13114,E,2.691,228.16,260620,,,A*7A
$GNRMC,122607.40,A,3600.78137,N,12919.13107,E,2.544,230.02,260620,,,A*79
$GNRMC,122607.50,A,3600.78132,N,12919.13099,E,2.508,233.49,260620,,,A*7F
$GNRMC,122607.60,A,3600.78129,N,12919.13091,E,2.375,235.07,260620,,,A*7E
$GNRMC,122607.70,A,3600.78124,N,12919.13082,E,2.783,233.15,260620,,,A*78
$GNRMC,122607.80,A,3600.78118,N,12919.13075,E,2.695,231.60,260620,,,A*76
$GNRMC,122607.90,A,3600.78113,N,12919.13067,E,2.661,234.02,260620,,,A*75
$GNRMC,122608.00,A,3600.78107,N,12919.13059,E,2.595,234.78,260620,,,A*7E
$GNRMC,122608.10,A,3600.78104,N,12919.13052,E,2.406,235.90,260620,,,A*7B
$GNRMC,122608.20,A,3600.78098,N,12919.13044,E,2.680,234.28,260620,,,A*75
$GNRMC,122608.30,A,3600.78092,N,12919.13037,E,2.537,232.09,260620,,,A*70
$GNRMC,122608.40,A,3600.78084,N,12919.13030,E,2.705,230.75,260620,,,A*7D
$GNRMC,122608.50,A,3600.78080,N,12919.13021,E,2.631,233.93,260620,,,A*75
$GNRMC,122608.60,A,3600.78076,N,12919.13014,E,2.526,235.18,260620,,,A*79
$GNRMC,122608.70,A,3600.78071,N,12919.13006,E,2.547,236.11,260620,,,A*71
$GNRMC,122608.80,A,3600.78066,N,12919.12998,E,2.746,234.51,260620,,,A*72
$GNRMC,122608.90,A,3600.78062,N,12919.12990,E,2.756,233.72,260620,,,A*78
$GNRMC,122609.00,A,3600.78059,N,12919.12982,E,2.575,235.86,260620,,,A*75
$GNRMC,122609.10,A,3600.78055,N,12919.12974,E,2.600,236.63,260620,,,A*78
$GNRMC,122609.20,A,3600.78050,N,12919.12968,E,2.531,235.05,260620,,,A*71
$GNRMC,122609.30,A,3600.78045,N,12919.12961,E,2.586,231.92,260620,,,A*7B
$GNRMC,122609.40,A,3600.78039,N,12919.12954,E,2.679,228.61,260620,,,A*76
$GNRMC,122609.50,A,3600.78032,N,12919.12947,E,2.765,228.82,260620,,,A*7F
$GNRMC,122609.60,A,3600.78027,N,12919.12939,E,2.748,229.97,260620,,,A*7B
$GNRMC,122609.70,A,3600.78023,N,12919.12931,E,2.537,231.71,260620,,,A*7D
$GNRMC,122609.80,A,3600.78019,N,12919.12924,E,2.459,232.21,260620,,,A*70
$GNRMC,122609.90,A,3600.78014,N,12919.12917,E,2.605,230.53,260620,,,A*70
$GNRMC,122610.00,A,3600.78006,N,12919.12910,E,2.796,228.22,260620,,,A*71
$GNRMC,122610.10,A,3600.78001,N,12919.12902,E,2.625,231.28,260620,,,A*7F
$GNRMC,122610.20,A,3600.77997,N,12919.12896,E,2.392,232.27,260620,,,A*7C
$GNRMC,122610.30,A,3600.77990,N,12919.12891,E,2.455,231.84,260620,,,A*7B
$GNRMC,122610.40,A,3600.77984,N,12919.12884,E,2.617,229.99,260620,,,A*7C
$GNRMC,122610.50,A,3600.77978,N,12919.12877,E,2.739,228.10,260620,,,A*7F
$GNRMC,122610.60,A,3600.77970,N,12919.12871,E,2.799,226.17,260620,,,A*71
$GNRMC,122610.70,A,3600.77964,N,12919.12864,E,2.416,228.40,260620,,,A*79
$GNRMC,122610.80,A,3600.77959,N,12919.12857,E,2.552,231.55,260620,,,A*75
$GNRMC,122610.90,A,3600.77955,N,12919.12851,E,2.319,231.60,260620,,,A*71
$GNRMC,122611.00,A,3600.77950,N,12919.12844,E,2.508,229.77,260620,,,A*71
$GNRMC,122611.10,A,3600.77943,N,12919.12837,E,2.559,227.80,260620,,,A*74
$GNRMC,122611.20,A,3600.77938,N,12919.12830,E,2.529,229.81,260620,,,A*74
$GNRMC,122611.30,A,3600.77934,N,12919.12825,E,2.470,229.39,260620,,,A*73
$GNRMC,122611.40,A,3600.77927,N,12919.12819,E,2.514,229.17,260620,,,A*76
$GNRMC,122611.50,A,3600.77920,N,12919.12815,E,2.637,226.20,260620,,,A*75
$GNRMC,122611.60,A,3600.77912,N,12919.12809,E,2.952,223.00,260620,,,A*71
$GNRMC,122611.70,A,3600.77904,N,12919.12804,E,2.757,222.22,260620,,,A*70
$GNRMC,122611.80,A,3600.77898,N,12919.12798,E,2.653,222.62,260620,,,A*70
$GNRMC,122611.90,A,3600.77893,N,12919.12794,E,2.456,224.27,260620,,,A*76
$GNRMC,122612.00,A,3600.77888,N,12919.12790,E,2.370,222.70,260620,,,A*75
$GNRMC,122612.10,A,3600.77884,N,12919.12786,E,2.608,219.83,260620,,,A*71
$GNRMC,122612.20,A,3600.77877,N,12919.12780,E,2.722,219.41,260620,,,A*7F
$GNRMC,122612.30,A,3600.77873,N,12919.12776,E,2.332,221.41,260620,,,A*7D
$GNRMC,122612.40,A,3600.77869,N,12919.12773,E,2.563,220.16,260620,,,A*75
$GNRMC,122612.50,A,3600.77863,N,12919.12770,E,2.379,219.06,260620,,,A*7B
$GNRMC,122612.60,A,3600.77858,N,12919.12767,E,2.476,217.15,260620,,,A*72
$GNRMC,122612.70,A,3600.77850,N,12919.12762,E,2.911,214.67,260620,,,A*74
$GNRMC,122612.80,A,3600.77844,N,12919.12759,E,2.773,213.75,260620,,,A*78
$GNRMC,122612.90,A,3600.77840,N,12919.12757,E,2.545,214.17,260620,,,A*77
$GNRMC,122613.00,A,3600.77836,N,12919.12754,E,2.235,214.64,260620,,,A*79
$GNRMC,122613.10,A,3600.77832,N,12919.12752,E,2.203,214.71,260620,,,A*7B
$GNRMC,122613.20,A,3600.77826,N,12919.12749,E,2.587,210.10,260620,,,A*7F
$GNRMC,122613.30,A,3600.77819,N,12919.12747,E,2.654,207.29,260620,,,A*7D
$GNRMC,122613.40,A,3600.77813,N,12919.12744,E,2.509,208.31,260620,,,A*7E
$GNRMC,122613.50,A,3600.77809,N,12919.12746,E,2.432,206.01,260620,,,A*72
$GNRMC,122613.60,A,3600.77805,N,12919.12750,E,2.403,203.39,260620,,,A*76
$GNRMC,122613.70,A,3600.77801,N,12919.12756,E,2.551,200.01,260620,,,A*7B
$GNRMC,122613.80,A,3600.77797,N,12919.12762,E,2.768,199.18,260620,,,A*70
$GNRMC,122613.90,A,3600.77793,N,12919.12769,E,2.669,195.47,260620,,,A*78
$GNRMC,122614.00,A,3600.77789,N,12919.12773,E,2.498,194.20,260620,,,A*7A
$GNRMC,122614.10,A,3600.77783,N,12919.12775,E,2.612,195.21,260620,,,A*77
$GNRMC,122614.20,A,3600.77778,N,12919.12776,E,2.471,194.99,260620,,,A*76
$GNRMC,122614.30,A,3600.77770,N,12919.12775,E,2.868,193.15,260620,,,A*7B
$GNRMC,122614.40,A,3600.77762,N,12919.12772,E,2.877,195.39,260620,,,A*7E
$GNRMC,122614.50,A,3600.77757,N,12919.12772,E,2.567,195.40,260620,,,A*7B
$GNRMC,122614.60,A,3600.77750,N,12919.12773,E,2.593,193.20,260620,,,A*75
$GNRMC,122614.70,A,3600.77745,N,12919.12774,E,2.333,192.74,260620,,,A*7B
$GNRMC,122614.80,A,3600.77738,N,12919.12774,E,2.412,193.30,260620,,,A*7B
$GNRMC,122614.90,A,3600.77729,N,12919.12772,E,3.151,191.93,260620,,,A*74
